datetime,lat,lon,country,city,pm2_5,pm10,no2,so2,o3,co,humidity,wind_speed,temperature,pm10_class_predicted,pm10_high_probability,pm10_class_true
2025-10-30 22:12:34,56.61296986558867,110.62383318539514,RU,Kichera,0.5,0.5,0.44,0.03,61.3,130.17,95,2.26,-10.12,0,0.012329609901416946,0
2025-10-30 22:12:30,70.95081634560518,-155.15708108391553,US,Barrow,0.5,2.32,0.06,0.03,65.08,108.47,90,7.06,-5.48,0,0.01266591535521445,0
2025-10-30 22:12:19,36.34184440481425,21.2183836981809,GR,Methóni,5.89,10.83,0.25,1.01,103.71,103.93,63,1.54,20.48,0,0.4725726632082928,1
2025-10-30 22:12:17,57.13398629666733,-69.26792835855602,CA,Kuujjuaq,1.07,1.13,0.09,0.01,57.79,94.36,71,1.68,4.46,0,0.034988872038967,0
2025-10-30 22:12:16,68.69144315142978,59.72552377373461,RU,Varnek,0.5,0.92,0.55,0.03,59.31,117.73,92,7.32,-3.42,0,0.012383719323676297,0
2025-10-30 22:12:08,3.333228033501996,-72.18565135391744,CO,Mapiripán,0.51,0.51,0.53,0.01,15.8,101.21,94,2.86,23.54,0,0.45738256990945003,0
2025-10-30 22:12:05,-19.40008854816496,31.51826940608072,ZW,Dorowa Mining Lease,1.23,2.15,0.27,0.13,38.83,108.5,74,3.58,20.16,1,0.6713725736443945,0
2025-10-30 22:12:00,51.08392350363977,82.77594397331461,RU,Zmeinogorsk,4.66,5.8,2.3,1.65,73.56,129.07,65,2.0,3.44,0,0.01737616923201739,1
2025-10-30 22:11:59,67.82868778184121,71.25901134024687,RU,Yar-Sale,0.5,0.94,0.36,0.13,69.69,114.72,95,4.27,-13.8,0,0.012329609901416946,0
2025-10-30 22:11:47,1.419518153055492,-156.27974545756894,KI,Banana Village,2.43,12.33,0.01,0.14,57.35,74.4,75,8.49,25.9,1,0.938372752706359,1
2025-10-30 22:11:40,1.2645568183779403,18.895506950660064,CG,Gangania,1.5,2.24,0.26,0.07,1.62,125.08,96,1.08,21.02,0,0.11466465059158085,0
2025-10-30 22:11:38,55.9763675262401,98.98426110708516,RU,Kvitok,2.64,2.64,0.27,0.2,90.91,116.48,97,4.42,2.11,0,0.011377818349659386,0
2025-10-30 22:11:30,40.347011773522496,52.7399646224778,TM,Türkmenbaşy,2.3,3.95,0.18,0.4,86.7,112.1,60,4.54,15.16,1,0.5207042546529581,0
2025-10-30 22:11:21,-13.40969690000999,-42.1050318343172,BR,Paramirim,2.06,2.58,0.72,0.09,64.83,94.59,36,4.12,26.8,0,0.3298484170838997,0
2025-10-30 22:11:18,-23.72949561685532,35.58194648780113,MZ,Régulo Cassiano,2.49,8.16,0.09,0.31,54.55,77.78,80,8.07,23.97,1,0.8924524249468959,1
2025-10-30 22:11:17,50.959684747203255,44.34226989505527,RU,Rudnya,2.09,2.55,2.8,0.1,31.96,155.0,85,2.55,4.71,0,0.054448186223542916,0
2025-10-30 22:11:15,-26.46420674137149,-49.15126971766972,BR,Pedra Branca,2.55,3.13,2.73,1.1,36.26,79.35,94,0.29,18.17,0,0.2529695375231606,0
2025-10-30 22:11:05,-14.060037045645473,25.224189865784155,ZM,Mufumbwe,6.75,9.04,0.48,0.35,61.16,157.65,41,1.61,24.45,0,0.21279618173025963,1
2025-10-30 22:10:47,60.18617442826397,-4.300185821582801,GB,Pierowall,0.93,3.61,0.56,0.15,78.62,101.38,79,19.18,9.92,1,0.8483685945119575,0
2025-10-30 22:10:42,-8.734574156013679,131.01751061347488,ID,Olilit,2.05,3.18,0.03,0.03,35.85,103.07,66,1.92,28.39,0,0.13722061315240172,0
2025-10-30 22:10:40,-43.41032191212499,171.10151126023004,NZ,Canterbury,0.5,0.5,0.14,0.02,45.53,63.08,76,4.47,3.38,0,0.019732289967249798,0
2025-10-30 22:10:39,16.14275750774155,-63.07981740384362,MS,Webbs,2.34,5.81,1.72,0.32,44.28,123.36,76,6.07,28.8,0,0.15719100480997672,1
2025-10-30 22:10:38,16.020500561466648,94.16210949433662,MM,Tingyaung,1.89,3.51,0.03,0.08,40.71,115.8,85,5.65,27.09,1,0.6326063251184131,0
2025-10-30 22:10:31,66.75324410704081,113.03764752270496,RU,Udachny,0.5,0.5,0.1,0.02,76.11,104.55,98,3.36,-17.05,0,0.005818416406467521,0
2025-10-30 22:10:11,33.2637090698675,-88.16403522001191,US,Carrollton,4.6,5.2,0.92,0.81,82.69,123.42,59,3.55,14.48,0,0.3375242997632116,1
2025-10-30 22:10:07,-16.053965683337992,141.72399039878457,AU,Carpentaria,2.12,8.9,0.03,0.04,11.37,74.9,52,3.87,31.13,1,0.5717371214864418,1
2025-10-30 22:09:57,7.447041557103702,15.678161811025204,TD,Bogomia I,7.31,16.35,0.18,0.02,14.27,103.75,63,1.59,22.39,0,0.39637808646716205,1
2025-10-30 22:09:37,56.98233718368175,55.30893403154121,RU,Barda,0.6,0.8,1.85,0.86,52.06,139.87,78,2.93,4.61,0,0.042084158184273364,0
2025-10-30 22:09:35,8.44874225013416,-11.801274898926152,SL,Makeni,1.52,2.74,0.43,0.15,35.13,112.45,98,1.2,23.0,0,0.1410634055035519,0
2025-10-30 22:09:34,44.141241520821865,38.77439789130776,RU,Starka,1.25,2.06,0.19,0.17,90.88,111.07,71,7.35,15.43,1,0.6747798834484602,0
2025-10-30 22:08:56,-4.464384222469505,-39.93096530188362,BR,Santa Quitéria,8.57,10.73,1.82,0.23,74.1,140.0,38,2.99,29.57,0,0.055598916434463234,1
2025-10-30 22:08:53,71.6768576755114,-10.630600192245709,SJ,Olonkinbyen,0.5,0.58,0.02,0.02,83.01,108.35,94,7.8,-0.63,0,0.011394224681357779,0
2025-10-30 22:08:50,69.02850655620173,-114.80880493222163,CA,Kugluktuk,0.51,1.67,0.04,0.0,65.76,105.7,88,3.86,-4.48,0,0.012329609901416946,0
2025-10-30 22:08:39,49.65560598292694,-111.61584278207329,CA,Grassy Lake,0.62,0.88,0.94,0.1,69.72,101.63,40,3.73,10.09,0,0.07072073878796477,0
2025-10-30 22:08:01,71.48398403245275,-150.64536838083754,US,Nuiqsut,0.52,2.29,0.09,0.04,60.59,107.35,91,9.54,-3.83,0,0.024921963682162384,0
2025-10-30 22:07:59,69.96199560078497,-146.2029877312873,US,Prudhoe Bay,0.5,0.5,0.03,0.0,80.37,101.05,100,3.09,-10.35,0,0.012329609901416946,0
2025-10-30 22:07:55,-21.06145753021588,-175.09218267506114,TO,Talafo‘ou,2.85,14.78,0.01,0.2,43.96,73.58,78,7.83,24.48,1,0.8755531380593056,1
2025-10-30 22:07:49,-6.185949807565692,154.69843089719353,PG,Bougainville,2.32,3.79,0.12,2.62,34.87,60.26,72,0.6,27.84,0,0.10297486237322474,0
2025-10-30 22:07:47,64.45421484288838,57.80917695347279,RU,Vuktyl,0.5,0.5,0.21,0.01,45.19,123.67,94,3.28,-1.63,0,0.012329609901416946,0
2025-10-30 22:07:40,-3.2452203581439107,35.69709811807064,TZ,Kiratu,0.88,1.54,0.68,0.06,29.96,106.56,92,1.56,15.25,0,0.43973349534144,0
2025-10-30 22:07:38,5.17268503394304,-0.6239270863057982,GH,Apam,1.88,2.88,0.1,0.1,44.28,87.53,87,4.91,25.98,1,0.8353746800487536,0
2025-10-30 22:07:29,49.70402462704058,-53.634419725127856,CA,Seldom Come By,0.8,0.91,0.3,0.03,52.41,104.0,82,3.15,7.88,0,0.09862862340301076,0
2025-10-30 22:07:14,66.03832434668172,17.767859405925122,SE,Arjeplog,0.5,0.5,0.56,0.02,50.26,112.35,89,0.61,0.77,0,0.009816466639605647,0
2025-10-30 22:07:11,51.53706289964222,97.87965735820978,MN,Tsagaannuur,0.5,0.5,0.04,0.02,85.71,84.07,95,0.66,-10.22,0,0.009816466639605647,0
2025-10-30 22:06:57,44.89376210960367,49.74868545997072,KZ,Baūtīno,1.12,2.06,0.33,0.38,91.1,112.61,73,6.88,13.14,1,0.5902790240081107,0
2025-10-30 22:06:55,66.90711953883317,80.23747808127041,RU,Tazovsky,0.5,0.97,0.24,0.1,62.85,113.33,95,3.34,-17.76,0,0.005818416406467521,0
2025-10-30 22:06:52,38.563674242733015,50.08591107213056,AZ,Astara,0.85,1.36,1.89,0.58,81.62,115.26,58,2.57,16.81,1,0.5075513519163269,0
2025-10-30 22:06:48,-16.421980419130506,-5.487399156053897,SH,Saint Helena,1.24,4.78,0.03,0.08,50.72,69.25,65,6.49,19.52,1,0.9171201294395666,1
2025-10-30 22:06:47,64.88765256594777,17.87539901649012,SE,Söderfors,0.5,0.5,0.65,0.02,52.04,117.86,87,1.82,2.0,0,0.01129701621851233,0
2025-10-30 22:06:42,-16.257882129125008,20.10306594035117,AO,Cuando Cobango Province,1.33,2.25,0.19,0.1,38.72,152.08,64,1.43,22.16,0,0.35905641180097586,0
2025-10-30 22:06:32,-1.9206197599122417,41.43864425924932,KE,Lamu,1.48,3.04,0.02,0.07,28.39,78.97,86,5.56,25.75,1,0.8269640210501495,0
2025-10-30 22:06:30,55.77054870916288,-106.84640749698468,CA,Beauval,0.5,0.5,0.07,0.01,69.13,100.56,82,3.44,1.6,0,0.011559112538281109,0
2025-10-30 22:06:17,-5.899769207901571,36.69597882965144,TZ,Geiro,1.99,2.97,0.89,0.07,28.82,107.48,87,3.07,17.69,1,0.6347178122702214,0
2025-10-30 22:06:10,-28.322608564003524,152.5158496402491,AU,Woodenbong,1.12,2.19,0.22,0.3,30.45,65.12,85,1.01,18.63,0,0.2529695375231606,0
2025-10-30 22:06:02,-33.44397841789855,-73.17797925696654,CL,El Quisco,2.03,8.97,0.01,0.3,34.1,64.51,84,9.84,13.58,1,0.8107439360096179,1
2025-10-30 22:05:57,16.228645181877894,98.59239538909009,TH,Phop Phra,4.54,4.99,0.38,0.04,9.67,140.55,99,1.08,19.91,0,0.20958144907025064,1
2025-10-30 22:05:53,66.54692421430235,23.18099816063165,SE,Övertorneå,0.5,0.5,1.31,0.27,49.1,125.9,96,0.98,1.75,0,0.013946617863498814,0
2025-10-30 22:05:51,45.41461020424194,-107.8966889623155,US,Soda Springs,0.79,2.59,0.59,0.15,84.85,90.92,31,2.11,11.16,0,0.08347899228503383,0
2025-10-30 22:05:46,39.416664650302096,-104.08919902588477,US,Kiowa,2.85,4.16,0.92,1.04,98.28,94.15,34,1.91,11.0,0,0.08347899228503383,1
2025-10-30 22:05:45,4.105192817113391,-54.48393103077957,GF,Grand-Santi,0.92,1.86,0.08,0.05,24.96,104.03,70,0.92,26.05,0,0.14847538224848222,0
2025-10-30 22:05:44,60.75613402101436,-139.7968471684442,CA,Burwash Landing,0.5,0.5,0.14,0.14,98.01,102.54,92,0.99,-11.51,0,0.009816466639605647,0
2025-10-30 22:05:24,-15.692287378853578,-150.90019503945052,PF,Fare,1.18,3.88,0.07,0.12,39.69,74.28,74,8.53,26.76,1,0.8952268936546867,0
2025-10-30 22:05:18,5.367720279341654,30.929338456192028,SS,Central Equatoria,1.79,2.64,0.78,0.05,4.66,133.81,89,1.84,21.99,0,0.4419218304530402,0
2025-10-30 22:05:13,71.52903600585131,-22.98441250217499,GL,Ittorisseq,0.5,0.5,0.02,0.0,93.35,109.81,81,1.11,-6.57,0,0.009201556535484066,0
2025-10-30 22:05:04,10.14176423970737,-64.98459374712493,VE,Puerto Piritu,0.78,1.36,0.26,0.04,36.89,129.28,81,4.63,27.82,0,0.4064751193144634,0
2025-10-30 22:05:00,3.2755632214593504,18.91047597766243,CD,Libenge,0.58,0.77,0.05,0.01,1.55,84.5,99,0.93,21.16,0,0.11466465059158085,0
2025-10-30 22:04:56,68.35527961583452,-89.61149092690546,CA,Kugaaruk,0.5,0.5,0.02,0.0,75.4,102.52,100,1.62,-10.34,0,0.010629925982757313,0
2025-10-30 22:04:53,47.690331477986206,-54.14666299278189,CA,Soldier's Cove,0.89,1.29,0.69,0.4,68.18,112.72,74,2.91,8.93,0,0.10131770783165639,0
2025-10-30 22:04:50,54.257737230005205,135.89522027004853,RU,Chumikan,0.5,0.5,0.53,0.04,61.14,110.83,89,2.21,-6.9,0,0.012329609901416946,0
2025-10-30 22:04:40,63.36148965339095,-15.038700185320408,IS,Hofn,1.12,3.81,0.13,0.15,81.7,102.33,69,13.67,8.24,1,0.5959639591733633,0
2025-10-30 22:04:35,50.64657297013099,-70.31893797404167,CA,Saguenay/Lac-Saint-Jean,3.36,3.44,1.32,0.28,51.71,106.6,82,2.47,5.55,0,0.103349016327244,0
2025-10-30 22:04:34,64.08711116188366,7.3706887383496,NO,Hopen,0.5,0.56,0.49,0.2,72.74,105.66,76,5.74,6.91,0,0.10317533786603432,0
2025-10-30 22:04:28,14.424861040109178,124.39495647003474,PH,Pandan,12.07,12.78,1.18,4.97,2.63,118.42,76,7.0,29.19,0,0.15248664702051815,1
2025-10-30 22:04:27,33.24985201641965,-107.33389367622938,US,Truth or Consequences,4.34,11.68,0.59,0.51,98.58,98.54,17,0.0,20.71,0,0.49228037781036765,1
2025-10-30 22:04:20,59.180793328428535,-129.77099163271598,CA,Dease Lake,0.5,0.5,0.2,0.05,77.47,91.04,72,2.75,1.17,0,0.010374421534369512,0
2025-10-30 22:04:17,-3.687741518934033,56.56439812701015,SC,Seychelles,4.69,13.57,0.04,0.23,25.21,72.69,84,6.96,26.42,1,0.8965387676600017,1
2025-10-30 22:04:16,-1.541070566628619,151.60133391026153,PG,Bueri,0.76,1.03,0.21,0.14,28.51,74.5,76,4.41,27.86,0,0.4764943100244574,0
2025-10-30 22:04:15,-1.5549698082968746,-89.54138838411247,EC,San Cristobal,2.47,8.66,0.01,0.14,44.33,76.11,82,5.16,21.54,1,0.794080724962339,1
2025-10-30 22:04:13,-12.415072089933602,48.439184709348126,MG,Ankorefo,2.38,4.96,0.22,0.09,30.26,82.6,68,4.65,26.01,1,0.8062082479835053,1
2025-10-30 22:04:05,57.19393604373056,125.548126169892,RU,Chul'man,0.5,0.5,0.61,0.08,33.17,120.2,100,0.92,-18.04,0,0.004629399152446971,0
2025-10-30 22:04:01,5.833994719748219,95.0852203765936,ID,Sabang,0.52,2.05,0.05,0.05,28.75,90.89,74,8.27,28.08,1,0.8847590047313275,0
2025-10-30 22:04:00,5.326608570391301,5.981270045950339,NG,Ughelli,1.11,1.84,0.09,0.08,37.77,100.51,95,1.91,24.23,0,0.4274302853113664,0
2025-10-30 22:03:48,54.46567225151816,134.34617951926447,RU,Udskoye,0.5,0.5,0.58,0.16,57.83,110.84,81,4.63,-3.87,0,0.011665641490460905,0
2025-10-30 22:03:30,46.24198732812516,103.54738557899468,MN,Mayhan,1.67,7.49,0.18,0.06,80.78,97.85,70,1.89,-5.6,0,0.009443180340427291,1
2025-10-30 22:03:21,52.817496033074434,-127.9204733963294,CA,Klemtu,1.03,2.85,0.74,0.5,77.93,97.82,64,0.41,6.95,0,0.05717981616671052,0
2025-10-30 22:03:15,63.96565769112146,13.605236025568049,SE,Valla,0.5,0.51,0.23,0.03,59.75,102.91,95,2.37,-1.86,0,0.012329609901416946,0
2025-10-30 22:02:54,32.80324891655036,91.7339572728551,CN,Pagnag,0.5,0.5,0.1,0.02,65.34,71.23,68,0.7,-3.39,0,0.00849866668363241,0
2025-10-30 22:02:50,59.5534322499874,-156.47798196232455,US,New Stuyahok,0.5,0.5,0.25,0.09,72.13,106.7,92,1.72,3.29,0,0.023361005215120238,0
2025-10-30 22:02:45,50.95569614996532,-92.16191183918497,CA,Lac Seul,3.49,3.55,1.0,0.09,61.73,110.37,68,0.76,4.89,0,0.05291012298196477,0
2025-10-30 22:02:40,1.480379436162906,24.77723941908076,CD,Yangambi,1.48,1.89,0.18,0.05,0.76,90.49,99,0.61,20.4,0,0.1575009471259692,0
2025-10-30 22:02:31,-25.514443313967234,144.51101477469803,AU,Adavale,3.86,16.61,0.15,0.04,51.6,79.87,14,6.24,29.14,0,0.08135071410823326,1
2025-10-30 22:02:21,-50.53843019738724,-67.2296444121543,AR,Puerto Santa Cruz,1.33,4.35,0.08,0.13,35.8,69.8,68,4.52,10.44,0,0.44212790865600676,1
2025-10-30 22:02:14,-5.664926435831305,-49.67929785012447,BR,Parauapebas,2.43,2.95,1.44,0.07,32.36,129.4,63,1.05,28.17,0,0.047993129959392845,0
2025-10-30 22:02:07,-0.1647785908666605,11.54091620188538,GA,Booué,1.4,1.74,0.72,0.03,6.83,99.64,99,0.29,21.37,0,0.11466465059158085,0
2025-10-30 22:02:05,61.5134669859259,71.84389424918297,RU,Lyantor,6.74,6.91,0.51,0.03,38.11,132.03,98,3.68,4.22,0,0.061373658719914,1
2025-10-30 22:01:56,-29.42592634995087,21.21988786718319,ZA,Northern Cape,1.86,3.71,0.34,0.03,71.38,128.16,47,3.14,25.11,0,0.3154417585309226,0
2025-10-30 22:01:46,-4.978348941487738,39.9411246408651,TZ,Micheweni,3.27,13.74,1.06,0.5,26.45,107.64,89,3.74,24.83,1,0.6246446713058256,1
2025-10-30 22:01:42,22.00362184863112,-72.17757012853892,TC,Kew,3.22,6.69,0.71,0.39,41.66,125.76,81,6.1,27.65,0,0.4596692971074812,1
2025-10-30 22:01:41,39.800379230852855,-102.98488591982743,US,Washington,1.29,2.14,0.67,0.26,87.88,86.97,28,4.38,13.8,0,0.19149011197389007,0
2025-10-30 22:01:28,59.69699962568939,136.39678325084452,RU,Solnechnyy,0.5,0.5,0.02,0.01,55.21,120.09,96,0.58,-11.68,0,0.009816466639605647,0
2025-10-30 22:01:23,-30.52115237744201,26.31260119178438,ZA,Josefsdeel,1.71,2.15,0.74,0.21,70.38,143.7,51,6.36,18.82,0,0.4796288838620236,0
2025-10-30 22:01:21,60.59184065065628,-112.90853336228318,CA,Canada,0.5,0.5,0.15,0.02,53.28,105.58,63,3.28,1.82,0,0.023856073175411937,0
2025-10-30 22:01:16,-25.773060250112465,-66.63627583997571,AR,Cafayate,0.96,1.96,0.2,0.08,84.92,84.47,12,7.39,3.94,0,0.0074807495463275545,0
2025-10-30 22:01:12,11.677333993790567,98.68364442697214,MM,Myeik,2.83,3.34,0.02,0.04,46.13,160.5,91,2.21,24.19,0,0.45738256990945003,0
2025-10-30 22:00:58,71.13145072808783,-21.456136264697165,GL,Ittoqqortoormiit,0.5,0.52,0.03,0.01,96.55,106.44,95,9.61,-3.09,0,0.024921963682162384,0
2025-10-30 22:00:41,-13.800394085816263,-39.14242516177657,BR,Igrapiúna,1.53,4.82,0.89,0.16,52.66,96.82,91,2.53,22.79,0,0.45738256990945003,1
2025-10-30 22:00:39,9.081845316337407,168.91834466162908,MH,Likiep,0.5,0.5,0.01,0.01,14.24,72.69,82,9.05,27.18,1,0.8027723933467823,0
2025-10-30 22:00:35,25.98256608529816,-100.27510347992552,MX,Salinas Victoria,3.84,5.59,0.81,1.33,84.33,96.89,25,5.2,22.57,1,0.6491246299975602,1
2025-10-30 22:00:33,-20.57716510501132,170.03302217125787,VU,Tafea Province,2.22,9.31,0.02,0.17,21.51,71.92,79,3.87,26.07,1,0.5831827541796757,1
2025-10-30 22:00:29,1.478890005393609,-67.42872487227113,VE,San Carlos de Rio Negro,0.5,0.5,0.01,0.0,7.38,94.14,98,1.19,23.75,0,0.1410634055035519,0
2025-10-30 22:00:14,72.30912503929534,-86.31021309798075,CA,Arctic Bay,0.5,0.5,0.08,0.02,71.15,106.56,76,2.01,-6.96,0,0.011180578888183908,0
2025-10-30 22:00:07,-23.121872616362666,27.00688344126749,BW,Moko,0.93,1.5,0.54,0.34,45.27,116.12,73,6.64,20.4,1,0.9165538118929095,0
2025-10-30 22:00:00,-22.6993531600629,149.0672641842679,AU,Ogmore,1.8,3.33,0.52,0.29,23.68,83.6,65,2.21,28.18,0,0.13071327170103195,0
2025-10-30 21:59:58,1.2528128696795164,122.73318535823852,ID,Sidomulyo,3.2,3.83,1.31,0.22,27.01,156.93,68,2.91,28.99,0,0.08054741653580155,0
2025-10-30 21:59:57,56.91923467446239,-7.505074099660618,GB,Daliburgh,1.14,2.81,0.88,0.17,85.01,93.82,89,23.87,8.69,1,0.8032266325401661,0
2025-10-30 21:59:53,69.76125925578307,-122.36703491047012,CA,Northwest Territories,0.5,0.51,0.03,0.0,66.74,100.48,87,2.83,-8.6,0,0.012329609901416946,0
2025-10-30 21:59:48,-0.8340741368178328,19.8913524734636,CD,Boluka,0.7,1.05,0.16,0.03,0.99,92.83,99,0.52,20.68,0,0.1575009471259692,0
2025-10-30 21:59:46,-11.519903236162534,25.54650572530997,CD,Lumpundu,5.34,6.34,0.57,0.38,27.04,143.84,65,2.12,19.26,1,0.5150945952807914,1
2025-10-30 21:59:34,-43.49170310881172,174.54437619384294,NZ,Cheviot,0.82,2.98,0.04,0.11,48.2,68.67,86,9.66,10.12,1,0.7143427476588172,0
2025-10-30 21:59:33,79.19047108013476,-97.9118271823028,CA,Isachsen,0.5,0.52,0.02,0.02,75.42,107.64,95,2.43,-13.78,0,0.012329609901416946,0
2025-10-30 21:59:28,-13.231979233279816,-59.87248903576084,BR,Nova Alvorada,0.9,1.02,0.11,0.02,26.96,106.76,82,0.6,22.52,0,0.12112232377651039,0
2025-10-30 21:59:16,52.95562608168879,109.2685119689354,RU,Buryatiya Republic,0.5,0.5,0.31,0.07,90.21,102.79,98,3.86,-1.28,0,0.012329609901416946,0
2025-10-30 21:59:14,68.39577163120669,109.25939632582912,RU,Olenyok,0.5,0.5,0.01,0.03,82.21,105.27,94,2.78,-17.05,0,0.005818416406467521,0
2025-10-30 21:59:13,64.7215966733402,-134.7294764863418,CA,Mayo,0.5,0.5,0.28,0.1,73.13,95.18,98,5.1,-11.13,0,0.012443150377660143,0
2025-10-30 21:59:01,-9.437754328046594,-53.932222788341335,BR,Cachimbo,2.48,2.59,0.39,0.02,18.31,138.58,73,0.86,25.09,0,0.1759664385235011,0
2025-10-30 21:59:00,-1.8391487815544136,-47.07179350678285,BR,Capitão Poço,3.61,8.37,0.84,0.55,49.9,116.94,57,4.72,28.69,0,0.3800194888074631,1
2025-10-30 21:58:59,67.20877953569254,-13.431529138754485,IS,Raufarhofn,0.5,0.5,0.12,0.06,85.18,102.51,67,5.48,1.16,0,0.010492543531757248,0
2025-10-30 21:58:58,-21.46689213278269,44.84760815680778,MG,Beroroha,4.27,9.22,0.37,0.12,47.27,92.31,55,1.1,24.09,0,0.08882177550967714,1
2025-10-30 21:58:56,49.74121157763648,-56.21890480199667,CA,Middle Arm,0.52,0.58,0.11,0.03,50.41,95.82,87,1.82,6.03,0,0.12665397816659488,0
2025-10-30 21:58:54,25.25444245910323,-81.4845193142835,US,Monroe,3.16,11.74,0.4,0.37,103.59,99.39,63,9.51,25.26,1,0.9603962922148335,1
2025-10-30 21:58:50,-0.2282435312722839,124.4368256526704,ID,Molibagu,1.27,1.33,0.12,0.02,32.23,124.54,73,2.39,28.63,0,0.08614466569453691,0
2025-10-30 21:58:49,-32.0607491161348,26.351726397916423,ZA,Eastern Cape,2.78,5.04,2.11,0.72,46.68,107.11,86,1.91,12.84,0,0.3753034498770022,1
2025-10-30 21:58:47,52.70797148674208,-134.12197672472354,CA,Kaisun,3.78,11.56,0.39,0.77,93.91,93.52,87,20.09,11.14,1,0.9193146706009695,1
2025-10-30 21:58:44,54.41954984939434,87.88386690853702,RU,Priiskovoe,3.2,3.66,1.06,0.31,49.09,127.31,86,1.87,1.56,0,0.011224855416719394,0
2025-10-30 21:58:40,-8.563065083607569,-78.90899891866526,PE,Virú,5.4,17.39,0.05,0.22,54.9,69.49,88,3.79,17.83,1,0.6825570083493656,1
2025-10-30 21:58:22,-23.27283969694048,-151.9868696756786,PF,Moerai,2.78,7.25,0.01,0.12,38.56,74.15,75,6.2,23.62,1,0.8396529660021668,1
2025-10-30 21:58:20,51.91701670857782,106.85378114329524,RU,Selenginsk,0.5,0.5,0.69,0.07,62.68,107.94,96,4.98,1.4,0,0.012443150377660143,0
2025-10-30 21:58:18,21.51168041186392,-79.90845759063646,CU,Venegas,4.37,8.71,0.24,0.67,89.36,104.78,72,7.37,27.6,1,0.7441420581942535,1
2025-10-30 21:58:13,-30.64494769546606,-53.33151566711763,BR,Caçapava do Sul,0.5,0.77,0.38,0.04,47.73,66.44,84,3.71,15.11,1,0.5210758613439547,0
2025-10-30 21:58:12,43.43657066908594,40.50757022298677,GE,Ritsa,1.19,1.68,0.31,0.22,87.88,112.78,81,3.17,-1.16,0,0.011559112538281109,0
2025-10-30 21:58:02,64.3481202392054,-36.02420584151395,GL,Kap Dan,0.5,0.6,0.03,0.02,86.39,102.44,57,7.9,3.47,0,0.034854970870720474,0
2025-10-30 21:57:53,17.881107427948038,-95.75175237782832,MX,Playa Vicente,2.05,3.01,0.41,0.5,78.58,95.1,73,3.39,25.29,1,0.5244807930228492,0
2025-10-30 21:57:43,47.20568348306412,-4.0027375288511,FR,Groix,2.5,6.32,1.77,1.21,83.49,99.03,80,12.24,15.88,1,0.8421017707824413,1
2025-10-30 21:57:38,-37.10332347623768,138.09433771759916,AU,Robe,1.32,1.62,0.49,0.2,59.29,71.48,86,2.77,14.31,0,0.4195127794449881,0
2025-10-30 21:57:37,62.584654864710615,62.65561331997248,RU,Khulimsunt,1.07,1.08,1.32,0.01,23.2,133.18,97,2.92,2.08,0,0.011377818349659386,0
2025-10-30 21:57:27,42.48632259880228,73.40752745032171,KZ,Granitogorsk,3.24,3.99,1.59,0.34,85.96,102.77,38,4.82,-8.05,0,0.00536369459136226,0
2025-10-30 21:57:23,64.88628952777947,149.07831677413105,RU,Zyryanka,0.5,0.5,0.03,0.1,91.95,104.39,78,1.3,-25.43,0,0.004796366991191302,0
2025-10-30 21:57:17,54.38370569063292,-76.02535621995878,CA,Kuujjuarapik,0.76,0.92,0.63,0.02,40.19,95.34,61,1.19,3.31,0,0.023468086070630095,0
2025-10-30 21:57:07,59.293326087127525,123.05799601894552,RU,Grishko,0.5,0.5,0.1,0.0,50.07,119.55,96,1.35,-10.2,0,0.010168604454320244,0
2025-10-30 21:57:06,54.36920443394007,-3.799195358386868,GB,Seascale,0.67,0.83,1.82,0.35,81.11,97.72,88,20.14,10.2,1,0.8985648248578701,0
2025-10-30 21:57:05,16.685281646835648,99.36611105522871,TH,Kosamphi Nakhon,6.06,6.26,0.2,0.02,14.84,135.81,96,1.36,23.18,0,0.1410634055035519,1
2025-10-30 21:56:57,-5.918447323100622,138.1875655438189,ID,Special Region of Papua,0.65,0.89,0.02,0.01,15.99,73.22,83,1.84,25.92,0,0.4236452340636725,0
2025-10-30 21:56:56,-19.88759484291292,163.97035491854945,NC,Poum,3.05,4.99,0.14,0.19,25.23,71.33,83,4.27,26.28,1,0.6924597303015896,1
2025-10-30 21:56:54,7.820879665139657,13.144560436493322,CM,Mbi Djoro,5.91,13.54,1.28,0.06,16.48,153.32,60,1.41,23.33,0,0.21020023733572907,1
2025-10-30 21:56:40,35.917423868085535,125.07661730740487,KR,Sŏnyŏl-li,10.45,15.02,1.03,1.73,95.81,132.92,59,3.71,16.14,1,0.5605132148560583,1
2025-10-30 21:56:39,22.569726115110385,-81.41017120500737,CU,Pedro Betancourt,3.27,11.26,0.21,0.38,98.3,92.94,56,3.47,26.08,1,0.6077135002467998,1
2025-10-30 21:56:38,18.907431177582865,-81.78468878045936,KY,Lambert House,2.73,7.4,0.12,0.13,93.63,98.66,75,7.46,27.74,1,0.6402731408470178,1
2025-10-30 21:56:28,45.52138483711198,99.75848653773112,MN,Bayanhongor Aymag,1.95,9.92,0.11,0.11,72.02,90.62,56,4.32,1.01,0,0.02746891890994994,1
2025-10-30 21:56:27,52.78166896646033,-95.06931577302944,CA,Deer Lake,0.5,0.52,0.41,0.1,60.29,106.41,68,2.59,5.1,0,0.08741602745665643,0
2025-10-30 21:56:24,41.31448156579603,-121.0872047729879,US,Modoc,14.84,16.81,1.65,0.1,79.74,145.2,39,0.58,13.34,0,0.05450099079111293,1
2025-10-30 21:56:05,-40.80256991100015,149.4492192699708,AU,Binalong Bay,1.0,3.34,0.05,0.12,59.37,66.75,68,6.73,13.77,1,0.6588826134345943,0
2025-10-30 21:56:02,7.699144075148624,-6.954192606180044,CI,Séguéla,6.31,13.05,0.99,0.14,19.53,144.76,88,2.04,23.09,0,0.45738256990945003,1
2025-10-30 21:56:00,43.30649665511132,-10.185703046373447,ES,Mugia,2.5,5.87,0.47,0.32,94.35,94.73,86,9.42,17.11,1,0.8724998657522969,1
2025-10-30 21:55:48,-0.0889905258089953,98.29266048421464,ID,Sikabaluan,0.5,1.32,0.02,0.02,30.47,78.2,72,1.39,27.56,0,0.1665715136031529,0
2025-10-30 21:55:44,-0.7872343854528197,166.63424116803264,NR,Yaren,0.86,1.76,0.0,0.04,42.58,67.65,75,4.21,27.65,0,0.3666409842231031,0
2025-10-30 21:55:29,54.71088487762913,104.46864043506474,RU,Zhigalovo,0.5,0.5,0.15,0.1,94.96,106.08,98,3.12,-0.93,0,0.012329609901416946,0
2025-10-30 21:55:25,70.7732815408057,131.67213124501853,RU,Entuziastov,0.5,0.5,0.02,0.0,54.23,132.33,91,3.2,-19.53,0,0.005818416406467521,0
2025-10-30 21:55:10,40.18888476534323,8.878260347799369,IT,Aidomaggiore,2.05,3.95,0.58,0.2,70.7,104.21,93,1.07,15.65,0,0.3668662212494521,0
2025-10-30 21:55:08,54.927495298127326,-122.3444241427222,CA,McLeod Lake,0.5,0.67,0.91,0.36,68.88,105.16,85,1.1,0.68,0,0.009816466639605647,0
2025-10-30 21:55:07,29.390832609581395,-104.78662399968536,MX,Ojinaga,4.58,7.81,0.97,2.19,94.36,103.03,20,0.86,23.67,0,0.06442112470227276,1
2025-10-30 21:55:01,36.84019313351202,-89.34354333777515,US,East Prairie,4.93,5.39,1.54,1.06,81.43,131.98,56,3.26,15.71,0,0.41243856759336833,1
2025-10-30 21:54:49,-19.74830052536672,-65.13140905776989,BO,Betanzos,0.6,0.67,0.26,0.06,63.75,52.18,54,6.43,11.23,0,0.26741495123455705,0
2025-10-30 21:54:41,31.29610194965421,-93.91614238875094,US,Hemphill,4.02,4.41,2.19,1.14,83.97,126.57,44,2.82,19.7,0,0.3333487344394414,1
2025-10-30 21:54:40,36.16756632953482,-97.27756131910756,US,Perry,2.1,3.23,2.07,0.34,84.03,117.6,40,2.57,16.79,0,0.23996380353655136,0
2025-10-30 21:54:23,-25.583129547787262,119.7953584420784,AU,Meekatharra,0.59,1.32,0.14,0.41,43.15,66.88,24,3.87,18.46,0,0.26299017711446776,0
2025-10-30 21:54:15,-14.317392188730722,132.90263403465258,AU,Katherine,1.54,1.58,0.1,0.02,23.37,118.85,65,3.26,28.13,0,0.1427824403388938,0
2025-10-30 21:54:04,62.6896159030953,127.33530277329692,RU,Berdigestyakh,0.54,0.54,1.8,0.4,28.85,129.01,99,0.48,-16.83,0,0.004629399152446971,0
2025-10-30 21:53:52,53.6822103945081,133.1036265077994,RU,Tokur,0.56,0.57,0.72,0.41,56.81,117.15,76,4.34,-4.98,0,0.011180578888183908,0
2025-10-30 21:53:43,52.54199039747456,-128.70182931512323,CA,Klemtu,2.07,8.95,0.76,0.72,82.84,97.76,69,2.88,10.33,0,0.15372844253555593,1
2025-10-30 21:53:40,46.64776227837953,-90.40131391208192,US,Hautala Corner,3.07,3.37,1.09,0.38,82.72,115.81,77,1.75,8.36,0,0.10000969277308122,0
2025-10-30 21:53:35,46.74756692595122,30.71981896427576,UA,Krasnosilka,8.73,12.4,0.86,1.95,92.5,124.2,83,6.81,12.34,1,0.6296929783672862,1
2025-10-30 21:53:29,59.5199224719417,-123.78646087010452,CA,Fort Liard,0.5,0.5,0.06,0.01,79.16,89.68,55,0.8,5.11,0,0.03413732519487779,0
2025-10-30 21:53:26,-9.061878669060633,113.2687861742104,ID,Kauman,1.64,3.43,0.02,0.07,33.24,74.74,80,6.0,27.57,1,0.5500854361956276,0
2025-10-30 21:53:12,56.74829087731084,6.892078107383497,DK,Harboøre,0.7,3.07,0.78,0.45,76.14,102.18,66,5.33,11.01,0,0.4459484548908855,0
2025-10-30 21:52:54,68.11612695459786,115.37813067039372,RU,Olenyok,0.5,0.5,0.01,0.0,73.06,107.61,98,1.46,-16.99,0,0.005015199807690964,0
2025-10-30 21:52:38,43.04628061683746,51.16161642186515,KZ,Quryq,3.72,4.71,0.23,1.03,86.8,114.97,64,7.08,14.28,1,0.6773062750599624,1
2025-10-30 21:52:31,8.779112475099453,34.51931641973974,ET,Dembī Dolo,1.46,1.9,0.83,0.02,11.11,136.33,87,2.09,21.42,1,0.506770135256568,0
2025-10-30 21:52:30,59.0469575435686,-67.47534964338337,CA,Kangiqsualujjuaq,1.3,2.5,0.1,0.05,61.75,98.83,94,5.36,2.29,0,0.011558790277451617,0
2025-10-30 21:52:18,39.25934274641429,71.31045785488266,TJ,Karakenja,9.95,14.48,1.22,0.55,78.37,137.44,36,1.74,-5.23,0,0.0047333530428273944,1
2025-10-30 21:52:16,-21.110142967397493,-160.77496872297164,CK,Nikao,3.76,11.9,0.02,0.11,37.4,71.91,84,7.8,24.48,1,0.8769421900148966,1
2025-10-30 21:52:15,70.58894552189201,-159.21044510900896,US,Wainwright,0.61,3.02,0.04,0.02,65.82,105.74,90,5.95,-6.15,0,0.012861729609202741,0
2025-10-30 21:52:12,33.00573712320802,127.99126102773198,JP,Hama,4.28,5.47,0.54,1.02,105.52,111.63,80,6.96,18.29,1,0.8556482323265816,1
2025-10-30 21:52:01,-9.892665933682252,125.96123971902124,TL,Ainaro,1.76,3.97,0.02,0.02,42.6,111.05,74,1.82,28.21,0,0.10651288060097487,0
2025-10-30 21:51:57,12.140863492603811,-86.27691526222432,NI,Barrio Santo Domingo,8.17,8.78,0.39,14.4,43.75,117.08,66,3.58,26.97,1,0.5250004423560553,1
2025-10-30 21:51:54,-34.06677704182879,-59.94653345371323,AR,Partido de Arrecifes,1.08,1.85,0.68,0.07,46.67,87.38,64,3.98,18.28,1,0.5605132148560583,0
2025-10-30 21:51:51,72.96366950709896,112.27024904288665,RU,Saskylakh,0.5,0.5,0.01,0.01,75.61,111.71,90,4.39,-14.78,0,0.012329609901416946,0
2025-10-30 21:51:40,33.77954579648768,83.32671157241577,CN,Yubzha,0.67,0.85,0.62,0.26,53.22,59.14,28,0.95,-8.34,0,0.004369138603584307,0
2025-10-30 21:51:28,-23.235660960487976,149.28460000874531,AU,Dingo,2.05,3.74,0.39,0.21,25.11,86.46,66,4.24,27.43,0,0.4714918565475765,0
2025-10-30 21:51:24,24.6119314464419,95.67091238152318,MM,Mawnwe,3.74,4.82,0.63,0.05,8.51,117.78,98,0.2,21.05,0,0.19117777158549656,1
2025-10-30 21:51:22,61.1988491329013,130.31096444304177,RU,Mayya,0.5,0.5,0.07,0.03,34.76,121.21,99,0.87,-15.81,0,0.004629399152446971,0
2025-10-30 21:51:21,46.79605932768291,120.29625831557206,CN,Wenquan,2.43,4.32,1.27,0.62,59.59,107.33,75,1.77,-6.91,0,0.011101161768545314,1
2025-10-30 21:51:20,42.40064978046968,-3.4365941383885854,ES,Barrios de Colina,0.5,0.82,2.26,0.02,54.93,96.37,76,5.66,10.66,0,0.499593301826004,0
2025-10-30 21:51:19,67.81999957085611,88.45033157648868,RU,Snezhnogorsk,0.62,0.62,0.86,0.51,46.2,125.8,97,1.93,-26.06,0,0.005818416406467521,0
2025-10-30 21:51:18,-13.753170351816324,48.029842531582005,MG,Ambanja,2.35,4.89,0.06,0.12,38.38,90.88,90,0.63,22.39,0,0.10438180680684947,1
2025-10-30 21:51:09,-34.73250828036795,140.95534170093538,AU,Paruna,0.67,0.82,0.27,0.04,59.12,86.3,60,7.9,19.9,1,0.9452920710871247,0
2025-10-30 21:51:07,-29.841983695992774,115.58627657747128,AU,Carnamah,1.04,4.64,0.19,0.24,54.47,69.29,88,0.31,12.12,0,0.20614428668185183,1
2025-10-30 21:51:05,21.32814264626991,-77.10082526034088,CU,Manatí,5.0,7.26,0.25,0.23,67.99,117.26,83,2.33,26.39,0,0.4314494918265639,1
2025-10-30 21:50:51,9.8710457728626,-13.270352917518691,GN,Coyah,1.48,2.57,0.26,0.13,41.35,120.95,95,0.57,24.3,0,0.09356035139814674,0
2025-10-30 21:50:41,8.6379593348654,168.5689634454111,MH,Ebaye,0.5,0.5,0.01,0.01,14.45,70.42,91,6.66,25.75,1,0.9213282585138394,0
2025-10-30 21:50:22,64.84637796079016,-24.920068725959823,IS,Olafsvik,0.5,0.99,0.03,0.03,76.93,107.15,67,11.55,2.96,0,0.04032151285004299,0
2025-10-30 21:50:12,-20.33897789255424,-39.21384515548058,BR,Vila Velha,6.59,12.58,0.43,0.27,57.99,103.67,86,2.98,23.78,0,0.45738256990945003,1
2025-10-30 21:49:56,-21.2410794636326,-156.643978971803,CK,Kimiangatau Village,3.49,11.6,0.02,0.13,31.11,69.42,84,7.55,24.12,1,0.885751876772664,1
2025-10-30 21:49:43,39.13770436353912,124.18533537210249,KP,Yŏmju-ŭp,9.71,10.42,2.8,2.38,92.13,158.8,87,5.28,13.47,1,0.6082500072639616,1
2025-10-30 21:49:36,72.69481148314279,114.08674468149592,RU,Saskylakh,0.5,0.5,0.01,0.0,76.95,111.6,91,5.84,-13.08,0,0.012861729609202741,0
2025-10-30 21:49:35,34.29307546564307,-101.69793285796368,US,Seth Ward,3.94,9.13,1.2,0.37,100.59,108.82,17,2.06,19.95,0,0.3428612165563326,1
2025-10-30 21:49:29,0.444634295917055,166.9651632835051,NR,Republic of Nauru,1.28,2.41,0.01,0.06,37.54,69.34,76,4.16,27.61,0,0.4228097894180905,0
2025-10-30 21:49:18,64.74506899554873,7.670104428148704,NO,Sistranda,0.5,1.2,0.22,0.17,76.2,103.23,70,6.55,6.83,0,0.12681543319373337,0
2025-10-30 21:49:13,-15.891332490836248,48.484394737297805,MG,Antsohihy,2.63,4.3,0.37,0.04,33.06,100.56,76,1.94,21.35,0,0.4473246163654996,1
2025-10-30 21:49:11,-26.09014720128528,-59.41128949297419,AR,Presidencia Roca,1.02,1.54,1.02,0.1,45.04,82.98,55,3.46,21.43,1,0.5602703356052321,0
2025-10-30 21:49:10,1.8948749812121408,27.233919872324947,CD,Noabo,0.5,0.51,0.02,0.0,1.58,71.6,100,0.37,19.67,0,0.2068557290501924,0
2025-10-30 21:49:08,44.28669342193902,-125.42007081378382,US,Waldport,3.96,12.03,0.48,0.63,74.18,105.21,78,3.41,13.02,0,0.33395118781341915,1
2025-10-30 21:49:06,61.6612579457786,-113.12904645276944,CA,Fort Resolution,0.5,0.5,0.18,0.01,60.46,104.81,66,8.28,2.5,0,0.0198890051094633,0
2025-10-30 21:49:05,65.54566509719749,-174.50370164414431,RU,Lorino,0.5,0.5,0.02,0.03,76.41,110.33,98,1.8,-18.23,0,0.005776864912943361,0
2025-10-30 21:49:02,-6.72638380736187,158.80227338625883,SB,Solomon Islands,0.88,2.19,0.01,0.1,22.55,63.22,75,7.5,28.72,1,0.5799054220439269,0
2025-10-30 21:49:01,-5.97438318955092,139.1611957961806,ID,Tanah Merah,0.52,0.84,0.05,0.01,10.37,70.69,93,0.53,24.51,0,0.10438180680684947,0
2025-10-30 21:48:50,67.77270503148199,112.33530828031792,RU,Olenyok,0.5,0.5,0.02,0.06,74.44,102.71,100,1.73,-20.4,0,0.005015199807690964,0
2025-10-30 21:48:42,60.37958316616727,-45.60431704741387,GL,Nanortalik,0.5,1.18,0.11,0.06,90.67,102.05,69,1.91,-1.26,0,0.010374421534369512,0
2025-10-30 21:48:38,-8.837888011300876,-39.773472848178784,BR,Santa Maria da Boa Vista,2.23,3.63,0.71,0.28,71.76,100.56,26,3.81,32.13,0,0.06272107251648502,0
2025-10-30 21:48:35,-35.05684035507505,117.9269611254652,AU,Albany,1.57,4.98,0.16,0.23,45.83,66.14,92,5.99,12.17,1,0.5773605435754957,1
2025-10-30 21:48:27,35.80916182083321,22.6539987244025,GR,Cythera,4.65,8.04,0.35,1.07,106.91,102.35,67,0.65,19.86,0,0.23340039765915452,1
2025-10-30 21:48:18,-24.194755796940584,29.20104324436204,ZA,Mokopane,1.16,1.54,1.38,0.73,44.15,127.92,82,3.09,14.21,0,0.34060408882470145,0
2025-10-30 21:48:08,55.00116098738914,-5.021093640832618,GB,Cairnryan,1.38,2.41,1.66,0.56,87.47,95.41,90,16.86,9.64,1,0.911848600529726,0
2025-10-30 21:47:57,-28.140048888926884,-63.32761216192492,AR,Lugones,1.62,5.45,0.19,0.05,48.25,77.05,42,3.7,22.67,0,0.4949732466765522,1
2025-10-30 21:47:52,38.96613004789489,-32.42509772599257,PT,Santa Cruz das Flores,1.85,9.4,0.3,0.23,90.77,97.51,67,7.45,18.67,1,0.8756247322702122,1
2025-10-30 21:47:44,49.76712828430496,-100.03933431326972,CA,Kemnay,0.5,0.5,1.18,0.59,62.91,108.73,75,4.12,4.0,0,0.019732289967249798,0
2025-10-30 21:47:30,47.94569599165001,-95.25978283074492,US,Little Rock,1.42,1.69,2.46,0.43,67.84,123.26,59,1.82,5.72,0,0.07913224565302959,0
2025-10-30 21:47:25,-24.248456952962613,-69.22820635913492,CL,Antofagasta,4.07,10.67,0.25,0.97,84.9,65.57,14,4.47,14.1,0,0.2171301644834121,1
2025-10-30 21:47:23,58.55742887007389,-153.57578623485065,US,Duck Village,0.5,0.63,0.14,0.13,73.27,95.53,84,6.8,6.48,0,0.13954139219336023,0
2025-10-30 21:47:06,67.54240400711413,-144.17265969281556,US,Arctic Village,0.5,0.5,0.36,0.15,67.13,110.28,84,0.78,-4.56,0,0.009816466639605647,0
2025-10-30 21:46:59,73.3238554462965,-39.75761925114344,GL,Greenland,0.5,0.5,0.01,0.0,55.64,82.38,100,4.53,-28.4,0,0.005872353336119762,0
2025-10-30 21:46:53,10.596452149731022,126.61072605190223,PH,San Isidro,1.56,1.77,0.62,0.22,24.9,134.16,73,3.5,28.68,0,0.11401708787884039,0
2025-10-30 21:46:51,-14.950596721810484,146.25315574406795,AU,Cooktown,1.06,2.87,0.08,0.08,16.63,68.69,81,4.37,27.56,0,0.4169031639527445,0
2025-10-30 21:46:35,63.94347282646825,-23.220783781082982,IS,Sangerdi,0.52,2.31,0.16,0.65,85.16,109.07,74,12.52,1.94,0,0.03267511821266483,0
2025-10-30 21:46:32,35.09001767182737,-97.4786611614542,US,Goldsby,1.78,2.88,1.45,0.26,84.78,111.25,33,2.57,17.61,0,0.23996380353655136,0
2025-10-30 21:46:29,69.41562242453523,176.79413645442776,RU,Leningradskiy,0.5,0.5,0.02,0.04,70.31,110.32,97,2.22,-22.06,0,0.005818416406467521,0
2025-10-30 21:46:22,64.77404239662016,-21.24600277351908,IS,Kelda,0.5,0.5,0.33,0.85,87.29,110.08,82,5.27,-3.21,0,0.011742933821546224,0
2025-10-30 21:46:20,8.200700371003393,-76.44345575299641,CO,San Pedro de Urabá,0.5,0.5,0.07,0.01,5.6,67.1,90,0.95,25.77,0,0.10717772689574026,0
2025-10-30 21:46:13,52.00744634934517,86.07391862568335,RU,Gorno-Altaysk,0.88,0.97,0.38,0.07,66.3,95.93,70,1.89,3.65,0,0.017563560148281098,0
2025-10-30 21:45:57,79.99052071788998,-106.68904723206452,CA,Isachsen,0.5,0.5,0.0,0.02,69.11,110.37,100,2.27,-18.34,0,0.005818416406467521,0
2025-10-30 21:45:48,72.86131841361131,72.70656905843376,RU,Drovyanoy,2.93,11.85,0.01,0.0,82.76,117.17,91,3.56,-3.97,0,0.012329609901416946,1
2025-10-30 21:45:38,53.32409702784241,-100.27722334681718,CA,Moose Lake,0.77,0.77,0.87,0.08,65.01,116.28,76,7.43,5.57,0,0.10733470349442638,0
2025-10-30 21:45:23,37.646142879489645,21.35498694399479,GR,Pýrgos,6.51,11.21,1.03,1.52,100.89,104.13,66,1.67,18.06,0,0.48607277734887305,1
2025-10-30 21:45:22,49.76911519707917,-104.5014658879575,CA,Forward,0.5,0.5,0.71,1.15,76.46,101.85,70,11.41,3.32,0,0.0591662216376678,0
2025-10-30 21:45:19,61.65734601289296,-2.086409136115691,GB,Brae,0.92,4.79,0.22,0.21,83.35,103.33,71,13.95,8.98,1,0.7260983453076366,1
2025-10-30 21:45:11,-13.984678896462412,-52.39134124035307,BR,Nova Xavantina,4.26,4.45,0.53,0.04,62.35,155.46,29,3.24,32.51,0,0.054183855640375776,1
2025-10-30 21:45:03,-19.424288472910305,170.15485664555052,VU,Tafea Province,1.84,8.22,0.01,0.14,26.74,73.43,78,5.17,26.41,1,0.6618753945007418,1
2025-10-30 21:45:00,60.73353145989239,-93.63802222339544,CA,Arviat,0.5,1.41,0.03,0.01,74.97,105.39,87,8.55,0.58,0,0.020027357339391445,0
2025-10-30 21:44:57,47.7362526009945,-77.814027712295,CA,Abitibi-Témiscamingue,2.24,2.74,2.19,0.56,48.46,132.52,72,1.57,5.67,0,0.08422686950497806,0
2025-10-30 21:44:56,22.36203337976626,-99.56977945740724,MX,Buenavista,5.99,6.68,0.99,0.41,80.57,106.82,47,1.9,19.75,0,0.3428612165563326,1
2025-10-30 21:44:54,9.458109007143662,-60.54825779613597,TT,Moruga,0.52,1.47,0.03,0.02,19.33,114.24,80,6.73,28.05,1,0.5200509784296107,0
2025-10-30 21:44:50,52.21929536613317,78.61391040714028,KZ,Malinovka,9.72,11.64,0.51,0.28,48.09,132.14,56,3.78,4.75,0,0.02638702300465064,1
2025-10-30 21:44:44,65.74073366798956,172.57778294635864,RU,Netten Polar Station,0.63,1.55,0.03,0.03,38.32,115.93,97,0.88,-25.71,0,0.004629399152446971,0
2025-10-30 21:44:42,68.48553858085538,132.11326086636177,RU,Batagay-Alyta,0.5,0.5,0.02,0.0,36.08,123.96,92,1.05,-22.76,0,0.004629399152446971,0
2025-10-30 21:44:18,62.50415786374717,-49.80355319478548,GL,Paamiut,0.5,0.54,0.06,0.03,85.32,104.11,68,3.92,-11.94,0,0.01032809102368257,0
2025-10-30 21:44:16,45.278548947292,-68.19711167366192,US,Lincoln,1.46,3.03,1.53,0.73,64.37,111.79,84,2.64,8.18,0,0.14061681398441078,0
2025-10-30 21:44:12,62.57550182408161,-5.357885636257123,FO,Norðoyar region,1.54,7.13,0.19,0.27,83.68,101.21,76,15.76,8.41,1,0.729878437569438,1
2025-10-30 21:44:04,72.02601251338393,-76.50763587575995,CA,Pond Inlet,0.5,0.5,0.01,0.0,71.53,106.27,57,1.22,-14.43,0,0.008557305210306617,0
2025-10-30 21:43:58,49.38662931525033,-75.88829514074831,CA,Waswanipi,1.12,1.26,0.47,0.1,46.63,105.91,71,1.57,4.99,0,0.08422686950497806,0
2025-10-30 21:43:50,-12.905784867995465,130.169777353492,AU,Larrakeyah,2.88,6.02,0.02,0.04,34.69,113.05,74,2.64,27.54,0,0.2440304197952754,1
2025-10-30 21:43:48,59.48027111489,-151.98607932271506,US,Homer,0.5,0.52,0.26,0.22,79.77,98.25,87,2.57,6.04,0,0.1274535106695377,0
2025-10-30 21:43:33,53.42568539648937,55.88580573965464,RU,Salavat,1.89,1.95,2.57,0.36,46.57,143.4,80,3.77,6.33,0,0.09862862340301076,0
2025-10-30 21:43:26,22.387600725179524,-98.2421019176462,MX,Cuauhtémoc,5.68,6.76,0.65,0.71,67.11,108.58,40,2.5,23.62,0,0.28245165650823917,1
2025-10-30 21:43:24,52.81677981508148,158.3996522575938,RU,Vilyuchinsk,0.5,0.6,0.11,0.09,75.94,111.96,75,2.33,-2.05,0,0.011180578888183908,0
2025-10-30 21:43:18,-9.426674827386137,-37.62082525781193,BR,Inhapi,2.25,3.88,1.55,0.65,49.93,92.53,60,5.91,25.97,1,0.8469690895705723,0
2025-10-30 21:43:05,-2.799678791546569,-73.79033619503633,PE,Rumo Cocha,0.5,0.5,0.01,0.01,7.23,93.85,74,1.51,26.45,0,0.4581956623896645,0
2025-10-30 21:43:00,48.98021052840775,-58.85300012811071,CA,York Harbour,0.83,1.37,1.33,0.82,74.51,104.41,83,3.18,9.73,0,0.3047099795402433,0
2025-10-30 21:42:58,59.17601619637841,159.71702697770962,RU,Palana,0.5,0.5,0.03,0.03,68.35,106.54,88,6.8,-0.6,0,0.013092543385497634,0
2025-10-30 21:42:53,33.59665970810552,126.40132429263156,KR,Jeju City,2.72,3.73,0.43,0.41,103.66,102.97,77,3.09,17.13,1,0.5326004958299524,0
2025-10-30 21:42:52,14.540782216015188,-91.50845006315129,GT,Mazatenango,4.33,6.08,0.34,0.42,56.37,105.05,86,0.62,26.2,0,0.1511087905524262,1
2025-10-30 21:42:51,-25.55613289010863,-58.84859072950079,AR,Pirané,1.08,1.39,0.94,0.14,42.01,80.24,53,4.04,22.4,1,0.5811532737269056,0
2025-10-30 21:42:50,78.707181716344,-97.41879634585943,CA,Isachsen,0.5,0.5,0.04,0.02,75.73,106.77,96,1.91,-13.79,0,0.012329609901416946,0
2025-10-30 21:42:23,64.59957634213023,-90.34670202548811,CA,Chesterfield Inlet,0.5,0.89,0.03,0.01,70.0,111.88,91,2.8,-8.59,0,0.012329609901416946,0
2025-10-30 21:42:22,-45.99694212257405,166.19905329640335,NZ,Tuatapere,1.14,4.38,0.01,0.1,54.41,67.32,61,7.51,9.39,0,0.3140057720862115,1
2025-10-30 21:42:19,61.2954484970328,92.24274865720332,RU,Teya,1.23,1.24,0.2,0.04,25.49,148.6,98,0.96,-13.87,0,0.009816466639605647,0
2025-10-30 21:42:12,43.11360332956079,147.53640861427613,RU,Shikotan,1.35,5.75,0.57,0.55,96.41,111.83,86,9.05,11.59,1,0.7819166259582854,1
2025-10-30 21:42:10,44.669123459385474,51.18616768799234,KZ,Taūshyq,0.8,1.34,0.23,0.21,90.13,111.22,78,5.28,11.08,0,0.4975335856280421,0
2025-10-30 21:42:09,48.96472146122929,-60.03170793568559,CA,Lourdes,1.14,2.7,1.52,0.89,80.85,105.21,90,4.85,9.68,1,0.5101132492899322,0
2025-10-30 21:42:03,40.917348043122985,-110.23283190914384,US,Mountain View,3.47,4.06,1.34,2.74,89.56,88.73,29,5.99,8.89,0,0.019311530358325824,0
2025-10-30 21:42:00,-14.506351032245462,17.57953375289469,AO,Menongue,1.35,1.65,0.34,0.05,24.53,154.32,89,1.29,18.86,0,0.339381514526709,0
2025-10-30 21:41:53,-33.0386043385696,128.8625695056819,AU,Eucla,1.11,4.72,0.09,0.14,50.71,67.32,69,3.89,15.31,0,0.4098405340531383,1
2025-10-30 21:41:47,47.89536240619341,107.43269797380862,MN,Arhust,0.5,0.5,0.09,0.02,91.22,96.18,95,1.37,-10.06,0,0.010168604454320244,0
2025-10-30 21:41:39,-5.988576199783665,37.78666250199592,TZ,Magole,1.87,3.22,0.9,0.14,25.58,114.84,94,1.12,21.9,0,0.10712384363944245,0
2025-10-30 21:41:31,6.600973693946898,21.57256600334989,CF,Bria,0.84,1.67,0.45,0.07,4.33,113.03,97,1.6,20.94,0,0.3370690030733121,0
2025-10-30 21:41:16,64.63151184598837,178.3338655415128,RU,Ugol'nyye Kopi,0.5,0.94,0.06,0.15,74.06,112.89,93,4.16,-18.41,0,0.005818416406467521,0
2025-10-30 21:41:15,1.6362598241213109,-51.66831448688379,BR,Amapá,0.54,1.17,0.08,0.02,37.84,100.01,56,3.23,28.23,0,0.11184272454489363,0
2025-10-30 21:41:13,53.530266854254194,-10.18461683183986,IE,Emlagh,2.55,11.41,0.16,0.26,81.72,99.36,82,19.71,12.81,1,0.8698443678269014,1
2025-10-30 21:40:51,45.33444807174632,31.734355094251868,UA,Olenevka,4.6,7.21,0.43,0.89,93.97,112.14,79,9.53,15.74,1,0.8197934705198237,1
2025-10-30 21:40:47,-15.987021396247355,-72.8045538559641,PE,Aplao,3.77,8.43,0.06,0.18,64.75,72.79,35,2.68,17.52,0,0.23996380353655136,1
2025-10-30 21:40:45,0.0974533432310522,-69.48830294408877,BR,Parnaiuicava,0.5,0.5,0.08,0.03,4.72,85.74,99,1.06,22.6,0,0.09356035139814674,0
2025-10-30 21:40:40,58.32602039569133,-140.21390746576157,US,Yakutat,3.76,8.29,0.27,0.63,87.35,93.62,91,21.47,10.01,1,0.8985648248578701,1
2025-10-30 21:40:32,70.8664517974722,-91.2920147477514,CA,Nunavut,0.5,0.5,0.02,0.0,85.09,105.32,68,1.23,-3.55,0,0.008803952483067463,0
2025-10-30 21:40:21,25.66029661977656,140.29629854014598,JP,Minami,1.08,2.84,0.22,0.09,45.48,85.91,79,5.72,26.72,1,0.6436235628233657,0
2025-10-30 21:40:13,66.85175514206006,87.68836757910509,RU,Svetlogorsk,0.5,0.5,1.88,0.57,38.38,122.77,97,2.68,-25.29,0,0.005818416406467521,0
2025-10-30 21:40:09,48.8823356839624,56.70172429469653,KZ,Shubarkuduk,3.28,7.1,0.25,0.21,64.18,126.84,61,6.17,8.18,0,0.10564317910298943,1
2025-10-30 21:40:08,-12.507048273822775,-56.90854764282204,BR,Mato Grosso,1.72,1.87,0.98,0.09,34.3,147.98,71,1.23,24.08,0,0.2239277264927251,0
2025-10-30 21:40:05,78.85711334855691,-108.17204583720802,CA,Isachsen,0.5,0.5,0.01,0.03,72.43,109.37,100,2.98,-17.32,0,0.005818416406467521,0
2025-10-30 21:40:04,54.96760771447384,35.561481716585774,RU,Myatlevo,1.78,1.92,1.23,0.37,51.96,127.23,95,3.8,5.41,0,0.19158006226135024,0
2025-10-30 21:40:02,63.10794566027619,-149.1953184700996,US,Cantwell,0.5,0.5,0.74,0.05,69.23,108.44,88,1.76,-3.91,0,0.010629925982757313,0
2025-10-30 21:39:43,51.70193438604741,53.61055637289189,RU,Ilek,2.84,2.99,1.57,0.5,47.86,138.45,72,3.18,6.85,0,0.08932664583460469,0
2025-10-30 21:39:38,79.45634019021281,17.192560441405362,SJ,Longyearbyen,0.5,0.5,0.02,0.01,68.28,112.62,78,2.34,-7.15,0,0.011180578888183908,0
2025-10-30 21:39:31,-37.54367403214175,176.40041589137212,NZ,Omanu,0.5,0.85,0.14,0.05,42.36,61.26,60,8.29,17.32,1,0.8833678710517154,0
2025-10-30 21:39:23,-9.89822725623968,-62.50894277753776,BR,Ariquemes,0.54,0.57,0.18,0.03,17.96,119.37,92,1.17,23.25,0,0.1564310002229778,0
2025-10-30 21:39:19,64.84353887850978,-147.9418586809237,US,Ester,0.5,0.5,0.09,0.07,76.59,99.33,59,4.63,2.14,0,0.024073171006851402,0
2025-10-30 21:39:17,30.073115695265685,91.09714782715628,CN,Dêqên,0.73,0.78,0.26,0.04,33.9,89.09,96,2.04,-3.36,0,0.012329609901416946,0
2025-10-30 21:39:16,70.64387329804279,146.77786168856318,RU,Chokurdakh,0.5,0.5,0.02,0.07,62.22,124.91,95,3.88,-23.24,0,0.005818416406467521,0
2025-10-30 21:39:06,8.977692750773343,107.36805624436788,VN,Con Son,5.96,8.94,0.37,0.4,69.28,144.49,81,3.81,27.64,0,0.26726284263728534,1
2025-10-30 21:38:50,58.29807634531403,109.44254814856409,RU,Alekseyevskaya,0.5,0.5,0.81,0.09,41.44,126.71,99,1.16,-11.27,0,0.010168604454320244,0
2025-10-30 21:38:45,69.14532614738985,175.87042953154645,RU,Leningradskiy,0.5,0.5,0.03,0.18,74.23,110.4,99,1.33,-20.13,0,0.004796366991191302,0
2025-10-30 21:38:44,-21.911743138960983,124.03293910544704,AU,East Pilbara,1.41,4.75,0.03,0.06,46.41,71.92,20,4.2,27.32,0,0.2843241584636207,1
2025-10-30 21:38:39,-51.88347751745141,-70.87837065582079,AR,28 de Noviembre,0.5,0.5,0.06,0.02,36.7,64.55,51,7.3,12.39,0,0.37786971313229073,0
2025-10-30 21:38:33,14.524254529317233,-61.89371962125382,MQ,Le Prêcheur,1.15,3.22,0.72,0.16,30.52,120.08,77,7.63,28.88,0,0.2528587701878014,0
2025-10-30 21:38:30,62.38940098014805,67.62995573290127,RU,Andra,1.56,1.56,1.95,0.06,33.57,130.32,98,3.03,3.2,0,0.02704070247825699,0
2025-10-30 21:38:29,32.785996983265534,95.35315231516888,CN,Gyamotang,0.77,0.84,0.11,0.13,46.69,86.71,78,1.08,-2.55,0,0.009201556535484066,0
2025-10-30 21:38:28,51.812580696106494,46.750282815631294,RU,Marks,1.51,1.59,1.48,0.29,48.36,137.38,81,2.15,6.08,0,0.103349016327244,0
2025-10-30 21:38:17,47.25284332239309,-91.72134500998834,US,Beaver Crossing,1.21,1.41,1.68,0.21,64.93,119.42,72,0.42,7.28,0,0.06751073962368091,0
2025-10-30 21:38:04,64.5126961393166,-85.50753775115683,CA,Coral Harbour,0.52,2.32,0.02,0.02,69.19,108.28,86,6.09,-3.43,0,0.012861729609202741,0
2025-10-30 21:37:49,43.65259478022151,41.02036787745763,RU,Lunnaya Polyana,0.96,1.28,0.52,0.23,87.23,113.24,56,3.05,-5.45,0,0.0088202350672159,0
2025-10-30 21:37:47,39.53492393229405,-75.15913040813518,US,Olivet,2.6,3.26,1.95,0.61,69.75,124.02,90,3.28,19.47,1,0.6708139506597307,0
2025-10-30 21:37:45,-12.164322343527928,-170.37753286543156,AS,Swains Island,2.05,6.5,0.02,0.12,38.31,71.14,77,9.19,27.76,1,0.8772100344716594,1
2025-10-30 21:37:36,-50.91240612057449,-68.77752168539881,AR,Hill Station,0.6,1.95,1.05,0.07,39.87,79.06,77,4.45,9.17,0,0.11175174959326811,0
2025-10-30 21:37:30,50.84887246441579,55.20995525640035,RU,Akbulak,2.8,2.88,0.68,0.28,54.31,133.74,76,5.36,7.41,0,0.10045445655330473,0
2025-10-30 21:37:12,30.65725318719957,-96.565166945333,US,Burleson,1.87,2.52,1.8,0.52,90.28,113.36,33,3.7,20.65,0,0.4736848606271738,0
2025-10-30 21:37:10,-7.09185322688478,26.93572690217556,CD,Manono,1.05,2.11,0.22,0.04,7.65,161.31,88,1.76,21.64,0,0.3671007636313927,0
2025-10-30 21:37:02,47.73337487934353,-115.04105841665836,US,Thompson Falls,1.7,2.33,0.9,0.04,72.0,110.61,61,1.04,7.21,0,0.05717981616671052,0
2025-10-30 21:36:58,-10.82944298805714,163.10483909849685,SB,Kirakira,2.03,7.41,0.01,0.2,21.73,69.79,77,8.76,28.26,1,0.8683654391389154,1
2025-10-30 21:36:54,6.724457700996069,116.08338743259634,MY,Kota Belud,2.82,3.65,1.3,0.25,36.28,142.1,77,1.61,26.93,0,0.19053557677046326,0
2025-10-30 21:36:49,-13.240280793413405,166.3989331308918,VU,Torba Province,3.62,13.64,0.02,0.27,19.02,70.29,80,8.78,27.61,1,0.7586517409962992,1
2025-10-30 21:36:48,61.34765528907624,-74.48081898019994,CA,Salluit,0.5,0.63,0.04,0.01,48.82,104.73,96,5.57,-0.78,0,0.012525528915284747,0
2025-10-30 21:36:47,58.694627778747474,-133.11694965568154,US,Juneau City and Borough,0.5,0.5,0.37,0.15,86.08,97.36,99,1.29,2.05,0,0.009382048347854293,0
2025-10-30 21:36:37,33.9400140635116,-84.45879477660915,US,Northwest Park,1.3,1.56,2.0,0.61,64.48,124.01,75,6.69,11.24,1,0.5887525271341395,0
2025-10-30 21:36:32,65.57629521827772,-179.00711860720423,RU,Egvekinot,0.5,0.66,0.02,0.03,79.98,111.84,76,6.66,-8.69,0,0.016036279920425233,0
2025-10-30 21:36:29,48.33281383933854,110.58314299422295,MN,Onon,0.59,1.05,0.92,5.37,80.16,104.34,60,3.51,-2.38,0,0.014413664824339045,0
2025-10-30 21:36:22,72.30466564677587,27.11916490939194,NO,Gamvik,0.5,0.95,0.73,0.12,41.49,123.76,77,7.75,5.55,0,0.0995228868050222,0
2025-10-30 21:36:19,4.913785383823992,18.280631182632906,CF,Boali,0.63,0.76,0.09,0.01,1.43,78.85,96,1.16,21.82,0,0.1446134518999051,0
2025-10-30 21:36:10,-1.8520847132085687,-75.33249777387151,EC,La Victoria,0.5,0.5,0.0,0.0,10.1,101.27,73,0.41,27.39,0,0.11028546613985415,0
2025-10-30 21:36:04,44.73541678719408,-65.67248751563955,CA,Cornwallis,1.32,4.08,0.62,0.39,77.94,105.34,82,4.99,11.43,0,0.48287753643712517,0
2025-10-30 21:35:47,-9.547933727957584,36.68003369751975,TZ,Malinyi,2.06,4.38,0.66,0.06,42.95,108.91,69,2.97,22.75,1,0.509008153955867,1
2025-10-30 21:35:45,60.62177554372414,139.47232291666535,RU,Solnechnyy,0.5,0.53,0.01,0.02,70.36,113.21,83,1.28,-14.06,0,0.010168604454320244,0
2025-10-30 21:35:38,71.55229478886045,-20.48729573257773,GL,Ittoqqortoormiit,0.55,1.54,0.01,0.02,96.01,105.3,94,11.77,-4.34,0,0.028832306627773713,0
2025-10-30 21:35:37,-7.231113191150499,-47.46700982101311,BR,Carolina,4.3,5.1,0.78,0.11,48.43,151.57,37,1.57,32.04,0,0.03452391283224416,1
2025-10-30 21:35:31,56.22306571608021,159.11104100651346,RU,Esso,0.5,0.5,0.07,0.06,88.67,110.76,91,0.63,-11.2,0,0.009816466639605647,0
2025-10-30 21:35:23,10.98892142935783,80.78796195538337,IN,Tharangambadi,5.19,10.04,0.53,0.4,55.4,116.54,74,3.36,28.32,0,0.14028961734392226,1
2025-10-30 21:35:18,30.35576685853136,87.84707998531889,CN,Bongra,1.03,1.08,0.87,0.07,43.67,89.12,95,2.48,-5.1,0,0.012329609901416946,0
2025-10-30 21:35:13,68.59979360228456,113.95724824737272,RU,Olenyok,0.5,0.5,0.02,0.01,74.65,107.81,97,1.71,-16.93,0,0.005015199807690964,0
2025-10-30 21:35:02,-26.67698533632627,24.303628945375124,ZA,Ganyesa,3.37,7.78,1.4,0.27,43.63,137.73,31,2.38,22.86,0,0.28245165650823917,1
2025-10-30 21:34:56,-17.641461947623952,44.61790629083831,MG,Maintirano,5.79,16.84,0.06,0.17,44.12,83.98,76,2.12,25.12,0,0.4239391952363392,1
2025-10-30 21:34:55,50.81868844425941,-117.78251198237253,CA,Revelstoke,0.89,1.2,1.11,0.66,62.71,99.09,69,0.38,3.57,0,0.01589038185972776,0
2025-10-30 21:34:37,61.90369907175182,45.3598279746862,RU,Dvinskoy,0.5,0.5,0.84,0.03,38.13,128.84,90,2.48,3.04,0,0.011377818349659386,0
2025-10-30 21:34:35,-10.116802409109482,39.52533870962438,TZ,Mingoyo,2.93,7.65,0.59,0.11,38.46,96.59,94,0.91,21.06,0,0.12758351494496892,1
2025-10-30 21:34:17,-23.02516388997232,29.81966789493626,ZA,Rietvlei,0.72,0.98,0.69,0.32,52.09,97.33,94,5.65,17.28,1,0.8340528037437175,0
2025-10-30 21:34:16,47.648594125408806,-79.04874337338887,CA,Rémigny,1.76,2.19,1.81,0.67,52.96,119.11,71,1.95,5.36,0,0.09364809717811715,0
2025-10-30 21:34:12,68.55457450958403,132.79073971742963,RU,Verkhoyansk,0.5,0.5,0.02,0.0,34.48,122.57,97,1.31,-23.28,0,0.004796366991191302,0
2025-10-30 21:34:07,68.92772632164665,80.3454808752075,RU,Antipayuta,1.21,7.67,0.2,0.19,78.74,111.07,100,0.51,-21.34,0,0.004629399152446971,1
2025-10-30 21:33:55,66.69171400741982,-176.13600394806258,RU,Egvekinot,0.5,0.5,0.02,0.03,76.99,114.1,98,2.91,-16.57,0,0.005818416406467521,0
2025-10-30 21:33:53,69.65861457490243,28.21655687298201,FI,Utsjoki,0.5,0.73,0.8,0.01,27.45,132.13,89,3.17,1.49,0,0.012329609901416946,0
2025-10-30 21:33:46,62.02487547218118,9.892712601887837,NO,Norway,0.5,0.52,1.4,0.21,42.17,106.95,84,1.98,-5.83,0,0.012329609901416946,0
2025-10-30 21:33:45,24.25888189374484,-101.22953767310554,MX,Concepción del Oro,3.23,4.27,0.21,0.56,81.22,88.66,19,3.88,23.65,0,0.4949732466765522,1
2025-10-30 21:33:42,49.226870030502056,90.22941160845085,MN,Buga,3.35,3.65,0.84,2.74,86.47,90.68,45,1.88,-6.27,0,0.006486761660684491,0
2025-10-30 21:33:31,-5.924124831390984,36.18597339981963,TZ,Msanga,2.47,3.8,0.85,0.08,32.89,105.5,77,2.81,20.71,1,0.5388036560681304,0
2025-10-30 21:33:16,-2.1848810235928653,102.13592494670364,ID,Sungai Penuh,1.31,2.15,0.81,0.15,30.78,108.28,81,0.87,22.76,0,0.12112232377651039,0
2025-10-30 21:33:14,58.309391473213736,-115.2142940783684,CA,Fort Vermilion,0.5,0.5,0.53,0.06,52.86,111.49,56,1.4,3.94,0,0.017844549217854246,0
2025-10-30 21:33:13,-8.154413591020571,-171.0115698373137,TK,Fale old settlement,1.08,2.99,0.03,0.09,38.53,75.73,76,6.48,27.68,1,0.6722532254488172,0
2025-10-30 21:33:09,58.10047107118058,109.25329593326636,RU,Alekseyevskaya,0.5,0.5,1.06,0.13,40.85,128.57,99,1.21,-11.46,0,0.010168604454320244,0
2025-10-30 21:33:00,-43.72877509431113,67.25664885681272,TF,French Southern Territories,0.5,0.64,0.01,0.04,52.64,70.25,89,14.59,7.34,1,0.7315408689454096,0
2025-10-30 21:32:58,23.08781884721334,-74.22085419346605,BS,Colonel Hill,5.11,8.9,0.42,0.35,75.1,114.28,80,6.9,27.71,0,0.48104323815500044,1
2025-10-30 21:32:57,-23.558387038649684,148.1710367774354,AU,Emerald,2.79,7.6,0.16,0.22,42.6,84.51,98,4.2,24.01,1,0.6693712245161753,1
2025-10-30 21:32:55,42.4345304375565,-8.862389133124907,ES,Sanxenxo,2.29,5.36,1.18,0.55,100.39,91.09,92,10.32,15.49,1,0.8201220342090261,1
2025-10-30 21:32:52,61.41179803784792,45.50704321749683,RU,Krasnoborsk,0.54,0.54,0.98,0.04,37.19,127.87,96,2.53,2.44,0,0.011377818349659386,0
2025-10-30 21:32:35,44.55491279553752,-111.19955931559149,US,West Yellowstone,5.45,7.37,2.15,0.1,76.72,127.32,47,2.65,6.25,0,0.0344044193219956,1
2025-10-30 21:32:33,-19.96136523188349,28.09399814600264,ZW,Umvutcha A,1.22,2.21,0.25,0.14,34.38,103.46,61,7.17,22.18,1,0.9398066695930787,0
2025-10-30 21:32:32,38.63132343488016,-119.31635984684692,US,Smith Valley,5.13,6.88,0.44,0.36,104.57,97.65,34,3.14,15.71,0,0.2214401216308093,1
2025-10-30 21:32:29,67.71140377149399,134.48960116577967,RU,Batagay,0.5,0.5,0.04,0.01,34.69,128.85,94,1.0,-21.5,0,0.004629399152446971,0
2025-10-30 21:32:19,64.75723706315725,8.807229097861153,NO,Roan,0.5,0.57,2.32,0.56,59.48,111.83,73,8.68,6.8,0,0.1985728351885137,0
2025-10-30 21:32:17,-26.38864016314902,147.9924446791395,AU,Amby,3.62,15.8,0.06,0.0,40.12,77.13,24,2.74,26.58,0,0.27679055274659303,1
2025-10-30 21:32:01,59.11046670214159,120.73023528459686,RU,Grishko,0.5,0.5,0.13,0.0,39.38,119.68,98,1.03,-10.41,0,0.009816466639605647,0
2025-10-30 21:31:57,62.64585516975717,132.85609857008546,RU,Churapcha,0.56,0.6,0.88,0.11,39.4,134.47,95,0.96,-12.76,0,0.009816466639605647,0
2025-10-30 21:31:56,7.074683651198768,168.85824104502228,MH,Airok,1.38,5.54,0.01,0.07,26.95,76.74,79,2.46,26.66,0,0.23772813736177023,1
2025-10-30 21:31:51,51.043996795334095,89.980470532666,RU,Teeli,0.89,0.94,0.32,0.07,85.19,92.91,55,3.08,-1.87,0,0.02028403735344034,0
2025-10-30 21:31:49,-2.5777653512919727,-57.92660607777852,BR,Urucará,3.36,3.46,0.35,0.07,25.27,116.27,48,2.26,30.99,0,0.49607069498573136,0
2025-10-30 21:31:39,67.98484438469751,80.98986081416098,RU,Tazovsky,0.61,2.2,0.42,0.42,71.03,112.92,99,2.15,-18.47,0,0.005818416406467521,0
2025-10-30 21:31:38,-20.652060195926023,166.20735929080143,NC,Fayaoué,4.14,4.61,1.18,0.83,26.84,74.02,82,5.98,25.88,1,0.8337188535289798,1
2025-10-30 21:31:34,-14.533048944620845,30.3820931375609,ZM,Nyimba,4.59,7.53,0.25,0.17,65.7,120.56,33,2.63,28.5,0,0.08196861356691734,1
2025-10-30 21:31:28,27.653349835739945,-98.51396314491956,US,Benavides,1.76,3.42,1.31,0.74,96.05,102.95,13,2.01,22.77,0,0.28245165650823917,0
2025-10-30 21:31:27,-16.912485878433074,-63.279228119720514,BO,Mineros,1.23,1.97,0.48,0.08,32.96,91.79,54,2.07,24.95,0,0.3772034583754851,0
2025-10-30 21:31:15,66.62191629139588,55.07256467205039,RU,Vonda,0.5,0.5,0.45,0.0,34.55,126.41,99,2.84,0.69,0,0.012329609901416946,0
2025-10-30 21:31:12,29.735285384295,-99.682797245887,US,Leakey,3.48,5.9,0.82,1.38,103.57,107.69,20,2.23,22.73,0,0.28245165650823917,1
2025-10-30 21:31:10,68.67360478025066,-52.786934816922965,GL,Aasiaat,1.26,6.33,0.03,0.01,83.61,110.15,82,2.53,-17.34,0,0.005818416406467521,1
2025-10-30 21:31:01,50.65502640286789,55.96509058478392,KZ,Mortyq,2.41,2.54,0.59,0.24,57.32,132.9,80,5.97,7.15,0,0.1063335467844337,0
2025-10-30 21:30:49,9.19070791929832,-64.33767734559376,VE,Cantaura,1.23,2.08,0.43,0.05,35.29,127.98,52,2.7,29.17,0,0.055598916434463234,0
2025-10-30 21:30:48,1.3893631671914903,97.8887641985276,ID,Lasara,0.5,0.7,0.02,0.01,30.18,83.38,73,1.06,27.52,0,0.11028546613985415,0
2025-10-30 21:30:39,62.2397023318635,12.022895714956746,NO,Røros,0.5,0.58,0.24,0.03,63.39,106.8,91,4.52,-1.91,0,0.012443150377660143,0
2025-10-30 21:30:26,-0.3740961489548766,42.586240452544615,SO,Kismayo,2.24,8.18,0.06,0.1,28.07,83.66,83,5.43,25.46,1,0.8025043484902117,1
2025-10-30 21:30:24,8.569404612357502,29.049926986322845,SS,Warrap,3.74,7.62,0.76,0.05,12.0,130.03,56,1.9,27.46,0,0.21931326498597195,1
2025-10-30 21:30:23,66.51577392170111,58.74097151038251,RU,Synyanyrd,0.5,0.5,0.39,0.01,42.77,129.55,95,3.97,-4.1,0,0.012329609901416946,0
2025-10-30 21:30:18,34.50285613620534,-95.13550993506968,US,Talihina,3.03,3.3,1.42,0.43,86.41,122.21,45,2.94,15.77,0,0.29789013178914125,0
2025-10-30 21:30:11,62.50844864677691,89.80563457833898,RU,Lebed',0.5,0.5,0.24,0.12,50.84,122.21,98,1.63,-14.06,0,0.010629925982757313,0
2025-10-30 21:30:03,-7.410994570556198,-68.77573727049074,BR,Águia,0.5,0.5,0.24,0.01,7.87,110.29,97,1.09,22.82,0,0.09356035139814674,0
2025-10-30 21:29:53,-4.234378989431903,34.750343879299805,TZ,Mtinko,3.75,4.49,1.65,0.08,43.03,140.12,58,5.07,20.1,1,0.8049487546959668,1
2025-10-30 21:29:47,63.39557885394501,-162.58975982856597,US,Emmonak,0.5,0.9,0.1,0.03,77.01,108.4,73,7.44,-1.41,0,0.01081239088737849,0
2025-10-30 21:29:44,54.96128005296441,-113.28052593938156,CA,Athabasca,0.5,0.5,1.13,1.07,68.09,102.96,73,1.42,5.21,0,0.07225112784450032,0
2025-10-30 21:29:42,70.41124149138267,-94.39899715230864,CA,Taloyoak,0.5,0.69,0.02,0.01,82.15,105.54,73,0.45,-14.18,0,0.008858937999137678,0
2025-10-30 21:29:41,47.81690142931362,-60.341292020043454,CA,Codroy,1.24,2.89,2.62,1.03,72.85,106.65,87,6.44,10.22,0,0.47377420594728226,0
2025-10-30 21:29:39,68.97971039547406,-129.54480199395644,CA,Tuktoyaktuk,0.5,0.5,0.04,0.01,57.85,104.27,91,7.4,-3.89,0,0.012383719323676297,0
2025-10-30 21:29:38,-22.20813248364836,168.0384574459277,NC,Wapan,1.62,2.3,0.11,0.15,21.07,66.31,83,4.62,25.32,1,0.7823417765882554,0
2025-10-30 21:29:28,41.61218392977031,-123.32223687483294,US,Happy Camp,4.87,10.19,1.55,0.63,62.78,116.25,79,0.48,5.39,0,0.0724317883433145,1
2025-10-30 21:29:26,63.754143931871056,120.33372451215251,RU,Verkhnevilyuysk,0.5,0.5,0.06,0.01,49.56,123.05,97,1.52,-11.82,0,0.010629925982757313,0
2025-10-30 21:29:10,55.433310706190326,114.80283663348472,RU,Taksimo,0.5,0.5,0.12,0.01,46.59,116.84,82,0.12,-17.02,0,0.0045662047618121185,0
2025-10-30 21:29:06,3.7284014795931313,26.34998974798796,CD,Bangenze,0.73,1.33,0.06,0.01,1.27,80.61,98,1.01,19.23,0,0.2068557290501924,0
2025-10-30 21:29:01,52.566897238870325,-175.86811356383652,US,Aleutians West,0.5,0.91,0.14,0.14,89.11,101.9,59,10.66,5.27,0,0.3466924144670392,0
2025-10-30 21:29:00,29.550811388268244,-10.848406705046472,MA,Sidi Ifni,2.81,13.54,0.18,0.1,75.3,94.67,79,4.06,21.38,1,0.6713725736443945,1
2025-10-30 21:28:55,-8.132230226733455,131.5699240170302,ID,Olilit,2.02,3.26,0.29,0.19,38.76,101.48,69,2.6,28.35,0,0.13246089940257844,0
2025-10-30 21:28:47,62.66997619803473,133.784155680234,RU,Khandyga,0.5,0.52,0.72,0.09,39.05,132.16,94,1.0,-13.53,0,0.009816466639605647,0
2025-10-30 21:28:40,64.50937193053647,39.84870346594377,RU,Severodvinsk,0.5,0.5,0.96,0.11,41.37,127.89,79,1.93,2.9,0,0.010316560963500587,0
2025-10-30 21:28:38,-8.14967325206726,39.80740342675381,TZ,Kilindoni,2.19,7.72,0.15,0.1,37.59,81.53,78,6.6,25.98,1,0.8925831280420227,1
2025-10-30 21:28:34,51.59826800828228,-5.736539266413985,GB,Dale,2.96,7.25,0.62,0.42,94.5,95.64,83,14.31,13.84,1,0.9118658264787531,1
2025-10-30 21:28:26,1.2225828782940056,119.14002714105732,ID,Ogotua,2.14,2.91,0.19,0.14,32.1,120.54,77,3.28,27.97,0,0.18736396167677263,0
2025-10-30 21:28:11,61.39884253413118,156.54144081545485,RU,Omsukchan,0.5,0.9,0.07,0.11,81.92,106.98,53,2.06,-11.57,0,0.0088202350672159,0
2025-10-30 21:27:53,69.98938460063098,172.36465917297238,RU,Pevek,0.5,0.56,0.12,0.2,67.17,115.84,96,1.05,-13.24,0,0.009816466639605647,0
2025-10-30 21:27:38,-49.7848781008445,-73.50740555129157,AR,El Calafate,0.5,0.5,0.06,0.05,39.48,65.89,100,3.73,-2.83,0,0.012329609901416946,0
2025-10-30 21:27:37,37.0182488757206,98.6494106426477,CN,Xinyuan,5.21,8.45,0.39,0.1,59.8,72.11,30,1.27,-5.03,0,0.004526762353832055,1
2025-10-30 21:27:34,72.15769022171358,132.77123369768907,RU,Tiksi,0.5,0.5,0.02,0.0,50.4,132.69,84,5.42,-13.79,0,0.012525528915284747,0
2025-10-30 21:27:23,72.58316300417269,129.66161209765647,RU,Tiksi,0.5,0.5,0.28,0.1,57.5,125.35,93,5.63,-12.04,0,0.012449799284948972,0
2025-10-30 21:27:22,57.695125245664,-126.93694353861544,CA,Ware,0.5,0.5,0.17,0.04,72.99,93.06,83,2.8,-5.37,0,0.012329609901416946,0
2025-10-30 21:27:16,52.73730892074218,77.67768551050534,KZ,Rozovka,8.78,10.59,0.33,0.2,46.68,129.98,59,3.96,5.43,0,0.07592914770951187,1
2025-10-30 21:27:14,64.25128543966548,46.90161018809164,RU,Koptyuga,0.5,0.5,0.14,0.0,44.99,122.09,95,2.54,0.75,0,0.012329609901416946,0
2025-10-30 21:27:09,-37.65359069948612,149.50844735098178,AU,Genoa,1.23,4.02,0.62,0.36,50.91,65.69,81,3.64,14.89,1,0.5047516861288678,0
2025-10-30 21:27:06,61.36493375067502,8.416643620785209,NO,Vang,0.86,0.93,1.51,0.32,42.27,108.33,84,2.44,-7.56,0,0.012329609901416946,0
2025-10-30 21:26:37,17.756414805125303,-66.48240218613832,PR,Santa Isabel,2.15,9.98,0.25,0.19,34.95,129.28,76,3.07,30.01,0,0.04941836870034544,1
2025-10-30 21:26:36,-2.5256499598906004,-64.8370148592158,BR,Uarini,0.5,0.5,0.04,0.02,10.09,104.88,92,1.21,27.23,0,0.09854639226490094,0
2025-10-30 21:26:33,65.86544180656338,18.62583181741244,SE,Arvidsjaurs Kommun,0.5,0.5,0.49,0.04,57.78,114.09,96,0.61,0.15,0,0.009816466639605647,0
2025-10-30 21:26:32,30.27813754438148,97.93242782334072,CN,Yanduo,0.59,0.6,0.16,0.01,41.0,81.84,100,0.75,-1.66,0,0.009816466639605647,0
2025-10-30 21:26:28,53.54839380558522,97.93900684538312,RU,Novyye Plity,0.5,0.5,0.05,0.02,73.73,94.37,90,3.68,-1.38,0,0.012329609901416946,0
2025-10-30 21:26:21,-1.019489129270383,-51.17083823787357,BR,Gurupá,1.66,4.02,0.21,0.14,40.01,99.05,63,2.42,29.04,0,0.07335103659996418,0
2025-10-30 21:26:19,62.151855143138505,134.05192906351874,RU,Churapcha,0.5,0.5,0.43,0.09,44.13,127.79,96,0.56,-12.4,0,0.009816466639605647,0
2025-10-30 21:26:16,-0.4263150725256963,100.05368471988317,ID,Sungailimau,0.55,1.12,0.21,0.04,25.86,80.53,88,1.39,22.48,0,0.16896422801360522,0
2025-10-30 21:26:14,77.05098667715703,-73.87730216472637,GL,Qaanaaq,0.5,0.5,0.01,0.02,78.25,112.38,80,10.2,-6.29,0,0.023484897088920435,0
2025-10-30 21:26:12,-21.762193840152435,45.40690375532091,MG,Beroroha,4.06,8.19,0.34,0.1,52.26,92.91,50,1.75,26.02,0,0.2157501899894128,1
2025-10-30 21:26:11,36.53243998151012,-7.415076815047541,PT,Fuseta,0.95,2.46,0.35,0.18,69.79,96.49,73,3.68,20.79,1,0.6713725736443945,0
2025-10-30 21:26:09,4.350229047398173,10.67580374888891,CM,Ngambé,1.54,2.08,0.52,0.1,21.64,129.55,100,0.66,20.15,0,0.26787599641975124,0
2025-10-30 21:26:08,71.57001561987539,149.34397125845106,RU,Chokurdakh,0.5,0.5,0.01,0.01,67.17,126.42,99,1.74,-24.71,0,0.005015199807690964,0
2025-10-30 21:25:59,47.25000990366456,-70.28737398535344,CA,St-Jean-Port-Joli,0.96,1.22,1.75,0.26,56.76,112.02,84,6.22,6.49,0,0.1283565814114132,0
2025-10-30 21:25:53,58.36051646885673,102.52988830066823,RU,Ust'-Ilimsk,0.5,0.5,0.41,0.16,40.78,139.27,97,1.15,-7.38,0,0.010223529451776663,0
2025-10-30 21:25:45,3.2071246184939497,14.58953448329268,CM,Yokadouma,0.5,0.5,0.05,0.01,2.72,100.02,96,0.74,21.16,0,0.11466465059158085,0
2025-10-30 21:25:44,41.23810761668543,-69.98753813147657,US,Nantucket,3.06,6.9,0.51,0.53,82.64,96.78,97,11.83,13.43,1,0.891836775094933,1
2025-10-30 21:25:38,78.32647471894586,13.883167444434662,SJ,Nybyen,0.53,0.71,0.04,0.03,69.8,114.9,79,4.79,-2.01,0,0.011283659092829938,0
2025-10-30 21:25:31,30.141580768987765,-96.57972545210448,US,Brenham,1.83,2.46,0.76,0.37,97.34,105.87,32,2.68,20.67,0,0.3428612165563326,0
2025-10-30 21:25:28,66.60871140345796,174.59664990869658,RU,Netten Polar Station,0.5,0.99,0.05,0.08,68.65,117.42,96,1.1,-27.96,0,0.004629399152446971,0
2025-10-30 21:25:23,67.08404022935227,-117.99627140365098,CA,Kugluktuk,0.5,0.5,0.05,0.01,68.6,102.37,88,6.8,-3.87,0,0.013092543385497634,0
2025-10-30 21:25:22,-9.8005157525252,122.92332989943009,ID,Kupang,4.9,12.48,0.33,0.18,45.11,107.68,75,1.3,28.06,0,0.06456015022603369,1
2025-10-30 21:25:20,58.14619580647283,48.68064028006225,RU,Kotel'nich,0.75,0.83,2.21,0.13,43.7,133.04,92,2.22,3.87,0,0.02704070247825699,0
2025-10-30 21:25:02,71.60257336988411,-114.84096159539428,CA,Holman,0.5,1.5,0.02,0.0,64.13,102.95,97,1.86,-15.35,0,0.014568655025380984,0
2025-10-30 21:25:00,40.57232429817253,2.006325726857966,ES,Sitges,1.9,4.62,1.09,0.45,71.17,105.43,71,5.16,20.83,1,0.8297085442047918,1
2025-10-30 21:24:50,-18.38263873616698,147.38046906164055,AU,Magnetic Island,1.27,2.74,0.24,0.16,14.72,70.09,81,3.57,27.09,0,0.3565760871758532,0
2025-10-30 21:24:45,13.28252045365278,-91.30574676962216,GT,Puerto San José,2.0,3.57,0.23,0.25,48.03,97.55,69,3.12,28.6,0,0.1446645782182494,0
2025-10-30 21:24:41,67.61768939495616,114.03982003545023,RU,Olenyok,0.5,0.5,0.01,0.01,77.38,105.66,99,2.03,-18.51,0,0.005818416406467521,0
2025-10-30 21:24:38,63.36147992190661,-171.6011641804686,RU,Provideniya,0.5,2.11,0.02,0.08,85.84,103.82,82,10.75,-3.94,0,0.026485107812236574,0
2025-10-30 21:24:36,8.283541582887409,-5.370105243166478,CI,Katiola,3.76,7.63,1.06,0.2,21.7,153.96,63,2.28,26.79,0,0.31523751346203877,1
2025-10-30 21:24:22,-13.837133089192063,24.621659944590988,ZM,Mufumbwe,5.84,7.81,0.36,0.23,51.67,143.2,47,1.53,23.57,0,0.21279618173025963,1
2025-10-30 21:24:21,50.654206965282725,33.101244061007264,UA,Sribne,5.14,6.97,1.52,0.81,77.25,127.42,73,7.18,8.66,0,0.15357368999885088,1
2025-10-30 21:24:19,50.83832664841887,127.80123129157192,RU,Srednebelaya,0.79,1.09,1.84,0.93,55.04,129.57,76,2.41,-5.73,0,0.011180578888183908,0
2025-10-30 21:24:09,40.00839455269539,20.54842410457178,GR,Kefalovryso,3.09,7.4,0.76,0.68,93.56,99.09,85,1.04,7.52,0,0.08097256973378529,1
2025-10-30 21:24:04,56.33683175070564,103.16872742280276,RU,Vidim,1.09,1.09,0.69,0.14,82.05,129.91,98,1.81,-2.43,0,0.01224213211023661,0
2025-10-30 21:24:03,59.783734594640976,67.35064236381277,RU,Kondinskoye,17.28,17.91,1.27,0.17,48.27,137.81,92,2.4,5.15,0,0.1274535106695377,1
2025-10-30 21:24:02,75.52870927393053,-119.10960665811776,CA,Mould Bay,0.5,0.5,0.01,0.01,68.16,110.61,100,2.61,-18.06,0,0.005818416406467521,0
2025-10-30 21:23:52,52.84107268606772,141.81125179343877,RU,Lazarev,0.57,0.57,0.75,0.36,72.06,159.1,71,10.79,0.55,0,0.03141499436806385,0
2025-10-30 21:23:51,-43.13864002447607,174.49188251122467,NZ,Kaikoura,1.01,3.73,0.24,0.24,48.81,68.61,70,10.47,12.48,1,0.8337927480215624,0
2025-10-30 21:23:42,60.35726602400379,-122.67611881253342,CA,Fort Liard,0.5,0.5,0.23,0.0,57.63,102.1,53,2.94,4.21,0,0.030473531270514307,0
2025-10-30 21:23:24,35.23238284182746,-102.67878729738032,US,Vega,2.72,6.04,0.53,0.32,95.81,99.76,21,7.29,19.24,1,0.5229148276819998,1
2025-10-30 21:23:21,42.17865947122408,-102.69878705964464,US,Alliance,0.74,1.63,0.27,0.23,88.69,88.16,24,7.2,11.92,0,0.12046953756990189,0
2025-10-30 21:23:08,52.02585572854491,-78.58827085890496,CA,Eastmain,0.5,0.5,0.06,0.01,20.34,87.91,71,2.73,4.32,0,0.0487071470917685,0
2025-10-30 21:22:57,63.318367413923454,-137.23858562346228,CA,Clear Creek,0.5,0.5,0.09,0.05,82.54,90.24,85,2.55,-4.25,0,0.012329609901416946,0
2025-10-30 21:22:48,-41.664129256755686,144.84952562544828,AU,Zeehan,1.24,1.74,0.41,0.37,52.67,68.76,70,7.93,12.87,1,0.6181831534915553,0
2025-10-30 21:22:46,-37.40324793478239,-59.78266741812608,AR,Chillar,1.47,1.77,0.35,0.3,59.45,74.62,80,4.79,14.33,1,0.5671875771246104,0
2025-10-30 21:22:44,10.690004863058064,138.28515623927257,FM,Rumung Municipality,0.5,1.0,0.11,0.03,19.34,80.13,76,7.36,28.76,0,0.18216169089290474,0
2025-10-30 21:22:38,60.34077944786628,45.3195167337158,RU,Verkhnyaya Toz’ma,0.94,1.0,1.28,0.31,48.12,128.28,96,2.27,1.91,0,0.011377818349659386,0
2025-10-30 21:22:23,31.93376194595983,28.225302659261985,EG,Marsá Maţrūḩ,4.68,12.31,0.47,0.48,99.86,101.33,67,5.21,21.77,1,0.8203767426643113,1
2025-10-30 21:22:21,18.29195542876053,109.83191960970782,CN,Yingzhou,5.69,9.09,0.21,0.27,87.42,118.05,91,4.31,25.08,1,0.773584627255924,1
2025-10-30 21:22:17,6.841224690723905,-83.02037811129807,PA,Punta de Burica,1.55,4.22,0.06,0.1,22.47,76.64,85,5.01,26.21,1,0.8353746800487536,1
2025-10-30 21:22:09,64.99208383966314,-35.204595331204075,GL,Kap Dan,0.5,0.66,0.03,0.01,86.44,102.84,62,7.59,2.46,0,0.03507461468373572,0
2025-10-30 21:22:04,-35.27064259219988,173.9454424989429,NZ,Kerikeri,0.54,1.53,0.07,0.11,47.01,65.4,80,2.1,13.79,0,0.3523780651148318,0
2025-10-30 21:22:03,-13.148504851312154,144.65199121123123,AU,Cook Shire,1.23,4.2,0.1,0.13,17.32,71.15,83,5.48,27.48,1,0.5127319613867555,1
2025-10-30 21:21:51,-33.1040680298745,-58.20154118357314,UY,Fray Bentos,0.77,1.48,2.64,1.18,45.44,98.8,60,3.45,18.91,1,0.6469383488208118,0
2025-10-30 21:21:37,-8.115977459855301,-14.384856569030546,SH,Ascension,2.1,9.63,0.04,0.12,64.1,74.79,78,5.66,22.49,1,0.8176952131518281,1
2025-10-30 21:21:35,-6.514987573244895,-37.93289896598594,BR,Jericó,4.22,5.5,2.23,0.19,64.91,110.31,28,1.35,30.69,0,0.02812655886080945,1
2025-10-30 21:21:31,-3.055672368742748,-38.76200311693668,BR,Paracuru,4.61,10.15,1.25,0.44,61.03,125.55,85,8.23,26.22,1,0.9322353081277244,1
2025-10-30 21:21:29,35.75510805323121,79.41929057528722,CN,Kangxiwar,2.19,2.62,0.51,0.1,62.78,60.28,33,0.72,-12.08,0,0.004369138603584307,0
2025-10-30 21:21:27,56.13827705279613,-91.25194981268714,CA,Shamattawa,0.5,0.5,0.08,0.02,57.95,105.1,75,3.77,1.65,0,0.02902951287289052,0
2025-10-30 21:21:24,44.491260883164415,-103.66442535771436,US,Deadwood,0.59,1.79,0.27,0.46,79.12,87.92,40,9.39,9.57,0,0.22870520073818293,0
2025-10-30 21:21:21,58.95419020232046,109.61320068323364,RU,Alekseyevskaya,0.5,0.5,0.45,0.04,38.58,125.95,98,1.1,-12.3,0,0.009816466639605647,0
2025-10-30 21:21:16,59.08332926020279,-123.34317474204808,CA,Fort Nelson,0.5,0.5,0.06,0.01,82.46,90.02,49,1.28,5.5,0,0.025218191229179936,0
2025-10-30 21:21:08,-4.74879428403024,103.49107656761949,ID,Kuripan,0.99,2.72,0.04,0.05,44.57,73.94,94,1.56,20.53,0,0.4531600861209431,0
2025-10-30 21:21:02,9.217061089501216,151.00335066421314,FM,Unanu,0.5,0.72,0.09,0.04,29.45,81.59,76,2.78,28.09,0,0.10937961394267227,0
2025-10-30 21:20:49,54.86256047202136,-86.57333499895375,CA,Fort Severn,0.5,0.5,0.06,0.01,54.46,105.74,63,3.72,4.97,0,0.07592914770951187,0
2025-10-30 21:20:36,-17.381164004071522,-45.89193913162214,BR,João Pinheiro,2.03,2.15,1.8,0.16,54.74,132.87,39,2.05,28.9,0,0.055598916434463234,0
2025-10-30 21:20:33,64.20096032147794,53.92309257788742,RU,Komi Republic,0.5,0.5,1.82,0.02,30.44,132.39,98,1.06,2.24,0,0.009056899667595047,0
2025-10-30 21:20:20,64.50131463016149,-161.996695513853,US,Golovin,0.5,0.98,0.1,0.03,77.83,105.84,64,10.29,-1.64,0,0.17005050443218478,0
2025-10-30 21:20:13,53.79651823921176,-108.74418231881266,CA,Makwa,0.5,0.5,0.86,0.08,65.3,106.4,80,3.89,-0.33,0,0.011559112538281109,0
2025-10-30 21:19:43,-33.45475109732276,-63.01600807124103,AR,Canals,4.92,7.54,0.35,0.11,65.48,99.59,32,4.47,23.26,1,0.6352612335597472,1
2025-10-30 21:19:42,-10.429493032904418,-60.6316652819835,BR,Espigão dOeste,0.9,0.96,0.39,0.03,32.28,141.05,74,0.91,27.09,0,0.12574003446228862,0
2025-10-30 21:19:40,-16.139110718378873,-67.24447445384837,BO,Coripata,0.71,1.15,0.2,0.1,69.64,53.85,87,1.61,18.01,1,0.5536278630573279,0
2025-10-30 21:19:39,53.55941072085295,58.7571552104279,RU,Selivanovskiy,8.74,8.76,1.81,0.13,42.46,144.23,100,0.0,6.53,1,0.5479475109544216,1
2025-10-30 21:19:38,22.59850957880178,-160.63925271170046,US,Kekaha,2.07,10.53,0.11,0.2,71.94,85.18,77,8.43,25.93,1,0.938372752706359,1
2025-10-30 21:19:36,-14.020014669293516,143.7623899724005,AU,Cook Shire,1.08,2.57,0.07,0.04,13.23,70.46,81,3.66,27.53,0,0.32323960500462073,0
2025-10-30 21:19:31,-42.30537606702232,-71.90666023917058,AR,Lago Puelo,0.5,0.54,0.36,0.07,32.62,63.23,88,3.11,9.61,0,0.3496569444559453,0
2025-10-30 21:19:21,-4.175112585578759,151.78608042896133,PG,Rabaul,14.37,14.51,0.2,10.51,14.23,61.93,92,1.03,25.36,0,0.10912751330859304,1
2025-10-30 21:19:19,7.474743699532553,106.86225204910482,VN,Con Son,10.95,17.04,0.55,0.88,65.55,128.68,78,3.13,28.07,0,0.13135540440504145,1
2025-10-30 21:19:18,39.09668711096066,-89.56256395807134,US,Hillsboro,3.86,4.47,1.92,2.61,82.15,123.35,50,6.69,13.84,1,0.5853793424127667,1
2025-10-30 21:19:12,41.64186051174073,-119.90961221283708,US,Brooks Mill,5.65,7.99,0.65,0.14,85.35,92.08,39,2.77,11.44,0,0.07778401638838268,1
2025-10-30 21:19:03,77.78553064982816,23.336551436713336,SJ,Spitsbergen,0.68,1.69,0.05,0.1,74.65,111.9,99,2.1,-0.97,0,0.012329609901416946,0
2025-10-30 21:19:01,7.534172743952254,-59.02577203092774,GY,Anna Regina,1.09,1.65,0.15,0.18,22.75,93.2,64,2.79,28.83,0,0.07335103659996418,0
2025-10-30 21:19:00,-35.53652787085773,-63.52281701847207,AR,General Pico,4.96,7.85,0.34,0.15,64.38,98.11,28,5.19,24.32,1,0.6491246299975602,1
2025-10-30 21:18:55,43.847346034661854,48.95931486706996,KZ,Fort-Shevchenko,1.99,2.72,1.4,0.37,69.53,120.49,65,6.53,14.7,1,0.6588826134345943,0
2025-10-30 21:18:41,17.838603051588663,105.7710111014963,VN,Tinh Ha Tinh,0.94,1.24,0.96,0.31,32.19,153.88,100,1.83,22.37,0,0.35762082965591563,0
2025-10-30 21:18:36,18.589473280865363,-66.84460136382391,PR,Hatillo,2.03,9.11,0.17,0.16,35.45,124.77,71,4.18,30.97,1,0.7831720879953691,1
2025-10-30 21:18:24,-78.2750093730345,169.8871031625618,AQ,McMurdo Station,0.5,0.62,0.0,0.01,52.75,77.58,71,7.81,-17.58,0,0.0058370357608902804,0
2025-10-30 21:18:22,19.49145722296588,-96.90431960963006,MX,Xalapa,2.97,3.75,1.89,0.6,75.75,113.11,77,1.97,16.78,1,0.5584818420752664,0
2025-10-30 21:18:21,72.20786459807553,131.23618020934663,RU,Tiksi,0.5,0.5,0.07,0.02,58.91,126.83,90,5.72,-12.09,0,0.012861729609202741,0
2025-10-30 21:18:19,-0.7435256832439023,36.45713954950921,KE,Naivasha,1.05,1.42,1.33,0.08,24.32,131.78,91,1.14,15.56,0,0.34752271929199247,0
2025-10-30 21:18:13,21.820786651981976,-110.47473259020715,MX,Cabo San Lucas,6.55,14.6,0.05,0.11,77.35,94.74,76,0.69,25.17,0,0.11280277522256434,1
2025-10-30 21:18:12,-47.66829740704552,-66.29895873637209,AR,Puerto Deseado,0.86,4.04,0.09,0.03,50.51,70.08,24,9.41,20.38,1,0.7378398610260016,0
2025-10-30 21:18:09,60.33859350408207,-153.1123190407461,US,Old Village (historical),0.5,0.5,0.13,0.33,75.17,97.96,99,3.8,-4.48,0,0.012329609901416946,0
2025-10-30 21:18:00,61.100795105325005,131.37398497166618,RU,Amga,0.5,0.5,0.12,0.02,43.2,125.84,98,1.04,-14.16,0,0.009816466639605647,0
2025-10-30 21:17:55,-13.574061794028992,25.89244086029194,ZM,Kasempa,5.8,8.21,0.45,0.41,56.38,149.35,38,0.83,23.52,0,0.06442112470227276,1
2025-10-30 21:17:53,72.80355453286467,-51.77367459623795,GL,Upernavik,0.5,0.5,0.01,0.0,67.21,100.17,71,4.53,-22.67,0,0.005267391162064683,0
2025-10-30 21:17:27,56.078331075796086,139.92884792318125,RU,Ayan,0.5,0.67,0.04,0.05,84.47,122.0,97,9.57,-0.13,0,0.024921963682162384,0
2025-10-30 21:17:20,-1.4028808459282516,150.14335670227734,PG,Kavieng,0.52,0.61,0.03,0.02,21.92,73.09,70,1.64,28.25,0,0.09886457241051064,0
2025-10-30 21:17:18,-49.71545720824198,71.32054005852967,TF,Port-aux-Français,0.53,1.16,0.01,0.08,43.81,64.87,87,3.86,2.28,0,0.011377818349659386,0
2025-10-30 21:17:15,-28.423356590466007,154.18584133595732,AU,Byron Bay,1.27,2.04,1.04,0.53,39.47,65.48,80,3.89,22.34,1,0.6713725736443945,0
2025-10-30 21:17:11,-29.03928507020808,167.51403420344053,NF,Longridge Station,2.42,5.93,0.19,0.28,44.82,70.13,90,5.61,20.54,1,0.82204546872015,1
2025-10-30 21:17:00,5.612914238245736,122.4364931480918,PH,Tabiauan,1.27,2.3,0.1,0.06,45.14,126.61,76,5.89,27.65,1,0.5744977863813734,0
2025-10-30 21:16:59,16.010110171283145,74.07297304144873,IN,Ajra,3.94,11.67,0.11,0.25,78.1,124.07,98,2.11,19.29,1,0.5572795582257835,1
2025-10-30 21:16:45,43.48314448792442,0.6275563339827954,FR,Seissan,0.79,1.59,2.61,0.02,40.06,89.01,73,2.61,12.54,0,0.24155986326237813,0
2025-10-30 21:16:37,-6.370850889159712,-63.05668639185586,BR,Humaitá,1.08,1.09,0.4,0.12,18.26,121.17,62,1.28,29.17,0,0.03745494097933881,0
2025-10-30 21:16:32,20.11026833762909,87.17918979534687,IN,Paradip,6.23,14.24,0.13,0.33,59.49,118.39,75,6.92,28.69,1,0.6032107832156035,1
2025-10-30 21:16:31,60.2249810953825,159.59226070658275,RU,Palana,0.5,0.5,0.03,0.08,88.51,106.1,60,5.58,0.38,0,0.03786988468923229,0
2025-10-30 21:16:24,-3.967772895981725,21.078530770799432,CD,Ilebo,1.04,2.01,0.14,0.03,3.42,127.17,99,1.01,21.41,0,0.11466465059158085,0
2025-10-30 21:16:19,63.94909498775533,75.1580465586533,RU,Muravlenko,2.11,2.12,1.8,0.08,27.13,154.38,96,6.02,-4.66,0,0.012861729609202741,0
2025-10-30 21:16:13,49.52357230179763,-88.38828665538914,CA,Macdiarmid,2.93,3.13,1.69,0.88,79.33,114.39,77,5.3,7.01,0,0.10045445655330473,0
2025-10-30 21:16:10,-39.73809051569662,-58.96451569410014,AR,Cristiano Muerto,3.05,6.6,0.13,0.32,50.59,73.23,82,9.3,12.06,1,0.7351350526789262,1
2025-10-30 21:16:09,-14.871759848650695,45.83215314050821,MG,Amborovy,1.98,3.73,0.08,0.07,28.8,84.58,82,5.02,26.29,1,0.7319622443510548,0
2025-10-30 21:16:08,-14.403458129599215,-63.56257005884328,BO,Urubichá,0.88,1.23,0.08,0.01,27.64,92.06,40,1.28,31.66,0,0.02613298222168886,0
2025-10-30 21:16:03,50.23695316382444,57.54801789575527,KZ,Aktobe,1.58,1.6,0.54,0.1,57.24,127.53,86,6.59,6.44,0,0.18029973701526825,0
2025-10-30 21:16:02,-9.135861731646015,-74.6378362786809,PE,Campoverde,0.5,0.5,0.08,0.03,4.24,84.89,77,1.4,27.12,0,0.1365210189014034,0
2025-10-30 21:16:00,64.87738101716391,-140.20259773732528,US,Eagle Village,0.5,0.5,0.27,0.03,60.83,100.14,94,2.79,-3.81,0,0.012329609901416946,0
2025-10-30 21:15:49,62.81935982466166,-75.05880124489546,CA,Salluit,0.55,1.13,0.08,0.01,53.62,105.57,99,2.08,0.89,0,0.012329609901416946,0
2025-10-30 21:15:46,-24.83016261850309,-56.72026661470935,PY,Unión,1.37,1.67,0.33,0.09,45.14,77.85,53,2.16,23.62,0,0.35784822622703627,0
2025-10-30 21:15:39,55.27894040254469,122.9285471811762,RU,Tynda,0.5,0.5,0.67,0.05,41.52,121.26,100,0.6,-17.85,0,0.004629399152446971,0
2025-10-30 21:15:35,54.5129600775966,160.4439812639999,RU,Kamchatka,0.5,0.5,0.14,0.04,65.5,110.92,68,3.24,-0.95,0,0.01032809102368257,0
2025-10-30 21:15:27,69.04288311063053,32.46818701876734,RU,Murmansk,0.5,0.5,0.66,0.17,48.32,127.32,91,1.8,1.3,0,0.01224213211023661,0
2025-10-30 21:15:26,-32.75874630160669,138.95219287392837,AU,Peterborough,1.55,3.51,1.14,0.28,60.6,84.98,60,7.85,16.93,1,0.8657474638007768,0
2025-10-30 21:15:21,56.85082067322472,12.324241348216988,SE,Falkenberg,0.62,1.21,1.61,0.34,67.24,112.17,76,12.38,8.56,1,0.6415084915246453,0
2025-10-30 21:15:17,51.59194578225839,-80.73279083795303,CA,Moosonee,0.59,0.62,0.21,0.04,42.31,92.6,57,3.09,8.41,0,0.0697634027854714,0
2025-10-30 21:15:13,40.908542193349206,-31.274646289428148,PT,Vila do Corvo,1.7,6.1,0.24,0.14,88.27,100.69,62,12.06,17.33,1,0.8887485033926847,1
2025-10-30 21:15:10,-43.48424255170952,-70.78045783121033,AR,Gobernador Costa,0.5,0.5,0.11,0.02,38.0,60.94,41,9.37,13.04,0,0.29088562479374874,0
2025-10-30 21:15:07,6.585791644121343,103.51792595245765,MY,Kampung Telaga Batin,4.98,5.35,1.12,0.24,22.76,130.4,74,4.5,28.75,0,0.14219913223570205,1
2025-10-30 21:15:04,16.996160414778828,-77.26147930209905,JM,Rocky Point,1.54,3.51,0.12,0.08,39.51,113.99,73,1.44,28.53,0,0.07729713177725688,0
2025-10-30 21:14:54,72.27763773191774,71.01202144051814,RU,Drovyanoy,2.5,8.86,0.01,0.0,79.35,119.18,89,3.19,-7.9,0,0.012329609901416946,1
2025-10-30 21:14:52,50.58035011248936,47.43690735449016,RU,Piterka,2.19,2.44,0.99,0.06,49.59,134.57,90,3.3,5.98,0,0.12178169210896285,0
2025-10-30 21:14:51,65.37415474436617,-149.67360603336937,US,Tutlut (historical),0.5,0.5,0.18,0.06,76.75,103.32,88,3.73,-8.51,0,0.012329609901416946,0
2025-10-30 21:14:43,68.9395114473711,148.90591532740626,RU,Belaya Gora,0.5,0.5,0.04,0.03,65.7,119.46,100,3.39,-25.59,0,0.005818416406467521,0
2025-10-30 21:14:42,-0.887775533833846,177.09954979262596,KI,Eriko Village,1.31,6.64,0.01,0.16,31.43,68.51,76,4.71,27.02,1,0.6458986232580429,1
2025-10-30 21:14:31,61.858976262716965,157.03734468261445,RU,Omsukchan,0.5,0.72,0.04,0.05,84.86,105.53,65,1.96,-16.11,0,0.004696974110944036,0
2025-10-30 21:14:26,-16.073804680675977,34.458125199539495,MW,Chikwawa,7.59,12.67,0.83,0.2,40.91,157.48,58,6.07,24.88,1,0.8848819197202881,1
2025-10-30 21:14:25,-20.0118512903409,145.19173024537673,AU,Queensland,5.23,12.15,0.15,0.03,34.2,96.74,71,3.14,23.86,1,0.5517259066634647,1
2025-10-30 21:14:18,24.296610789464395,-73.4858441222688,BS,San Salvador District,3.74,10.8,0.68,0.34,61.04,111.7,84,6.51,27.3,1,0.7053902994108765,1
2025-10-30 21:14:15,78.15752529692219,-68.1968244101039,GL,Qaanaaq,0.5,0.5,0.01,0.0,91.92,104.35,79,3.32,-20.62,0,0.005626806826034271,0
2025-10-30 21:14:10,36.625739510885,24.007705694701627,GR,Milos,4.89,8.59,0.91,1.36,104.95,104.82,68,3.82,19.47,1,0.6986952191661944,1
2025-10-30 21:14:08,-34.69450558431446,150.2241705543936,AU,Penrose,0.58,0.74,1.02,0.1,15.62,57.57,91,1.17,13.23,0,0.23892522392625418,0
2025-10-30 21:14:06,55.06291684859565,91.37330740153676,RU,Balakhta,4.58,4.74,0.25,0.21,82.75,112.55,69,2.18,5.96,0,0.09364809717811715,1
2025-10-30 21:14:05,65.04587877795501,-145.18745523756343,US,Chena Hot Springs,0.5,0.5,0.11,0.02,78.49,101.15,84,1.87,-2.35,0,0.011224855416719394,0
2025-10-30 21:13:47,60.992881783850095,-110.6479157849516,CA,Fort Smith,0.5,0.5,0.1,0.02,53.63,104.62,71,3.53,1.34,0,0.010374421534369512,0
2025-10-30 21:13:38,-15.36913638775735,-58.37022442947766,BR,Porto Esperidião,0.6,1.05,0.14,0.01,33.72,115.36,37,1.8,31.65,0,0.04297176467502293,0
2025-10-30 21:13:34,57.58560132858847,58.19067791531273,RU,Shamary,2.49,2.55,2.55,0.32,38.4,139.15,96,3.0,2.1,0,0.011377818349659386,0
2025-10-30 21:13:31,55.8321657485983,137.73287164580336,RU,Ayan,0.5,0.5,0.08,0.02,81.02,126.2,71,5.6,0.13,0,0.010539603899260268,0
2025-10-30 21:13:29,71.98891445058803,102.16156013846684,RU,Khatanga,0.5,0.5,0.01,0.03,76.76,106.77,97,3.21,-19.42,0,0.005818416406467521,0
2025-10-30 21:13:22,69.36256956026787,-69.18216557840582,CA,Clyde River,0.5,0.5,0.02,0.01,73.65,105.36,99,2.02,-18.65,0,0.005818416406467521,0
2025-10-30 21:13:14,1.1165067546199057,46.30158489476304,SO,Mogadishu,3.03,11.85,0.04,0.1,36.59,82.21,81,6.25,25.61,1,0.8452324219481417,1
2025-10-30 21:13:10,-17.103173923756557,-53.019668807828296,BR,Alto Araguaia,2.5,2.57,0.36,0.02,46.44,161.69,78,1.56,23.77,0,0.3510850225210584,0
2025-10-30 21:12:58,66.22928339032615,-127.14842833501626,CA,Fort Good Hope,0.5,0.5,0.06,0.0,79.54,107.4,78,0.95,-2.96,0,0.009201556535484066,0
2025-10-30 21:12:45,-17.085492833114074,29.176265921966603,ZW,Mashonaland West Province,6.1,7.82,0.64,0.89,66.33,136.08,30,4.15,28.6,0,0.10356594081991301,1
2025-10-30 21:12:27,43.13109099909949,71.32921979317476,KZ,Mikhaylovka,2.97,3.72,1.64,0.77,94.19,97.91,79,2.11,7.73,0,0.1002695050365115,0
2025-10-30 21:12:26,6.361519183022978,114.48214554800722,MY,Federal Territory of Labuan,3.11,4.47,0.35,0.19,48.71,126.79,75,1.49,27.8,0,0.15011048906236008,1
2025-10-30 21:12:08,-15.929858144385904,44.0472291683445,MG,Voalavo,5.78,16.33,0.05,0.19,50.56,85.1,82,5.66,26.61,1,0.6283986013174115,1
2025-10-30 21:12:02,57.545778328202886,141.51295707629498,RU,Enken,1.56,1.66,0.07,0.07,83.52,133.53,98,10.49,0.36,0,0.02822212207398606,0
2025-10-30 21:12:00,56.16072633576209,94.2773909750718,RU,Zelenogorsk,4.5,4.69,0.55,0.62,85.9,118.47,97,4.44,2.83,0,0.011377818349659386,1
2025-10-30 21:11:50,52.7883969469226,-63.49417325102969,CA,Churchill Falls,1.22,1.27,0.13,0.02,69.34,107.24,89,2.49,5.37,0,0.1274535106695377,0
2025-10-30 21:11:45,71.14614560941894,85.90056634265483,RU,Baykalovsk,0.5,1.15,0.2,0.11,78.79,108.89,99,2.2,-16.2,0,0.005818416406467521,0
2025-10-30 21:11:42,-29.444161675138005,-66.2147657612963,AR,Pozo de Ávila,3.21,10.22,0.12,0.09,53.01,78.94,34,8.37,25.76,1,0.6719524391856938,1
2025-10-30 21:11:35,-9.394811305404914,-66.52448691578209,BR,Porto Acre,0.5,0.59,0.13,0.0,18.98,114.64,55,1.29,29.95,0,0.02812655886080945,0
2025-10-30 21:11:32,68.32768878989643,24.816035040004323,FI,Enontekiö,0.5,0.5,0.97,0.01,42.17,127.91,99,3.61,0.79,0,0.012329609901416946,0
2025-10-30 21:11:31,-13.735583460000882,50.3749563980013,MG,Ampasibajina,2.64,6.23,0.36,0.13,19.2,80.08,76,5.69,24.85,1,0.8413694222785432,1
2025-10-30 21:11:30,22.89197687686436,-78.49151008809974,CU,Morón,4.19,7.85,0.44,1.01,82.66,110.52,81,10.26,25.8,1,0.8872267632470004,1
2025-10-30 21:10:57,42.01382605124411,-107.49403811881255,US,Rawlins,2.49,4.21,0.35,0.26,91.77,84.67,33,3.94,9.18,0,0.023514806450890432,1
2025-10-30 21:10:50,-38.13576760585385,-59.78837635189424,AR,San Cayetano,1.82,2.83,0.33,0.32,62.69,76.67,75,5.05,15.15,1,0.5939652010984551,0
2025-10-30 21:10:49,50.458931602100165,-96.6088134856544,CA,Almdals Cove,0.53,0.67,1.69,0.34,70.85,119.2,68,2.89,6.95,0,0.08741602745665643,0
2025-10-30 21:10:46,-4.471365668153226,17.438278828383602,CD,Kiteke,1.44,2.88,0.42,0.07,4.49,126.38,95,0.89,21.9,0,0.09604860231881901,0
2025-10-30 21:10:40,3.0327515964249727,-73.00081758426207,CO,Puerto Yuca,0.92,0.92,0.34,0.01,28.3,102.36,67,1.66,29.18,0,0.056745921005548046,0
2025-10-30 21:10:39,39.94475387768213,72.92599679387322,KG,Osh Oblasty,6.82,8.27,0.19,0.55,78.49,84.71,42,3.59,-2.59,0,0.0065944941318544885,1
2025-10-30 21:10:38,8.268283843760798,-69.3842367654404,VE,Las Casitas del Vegon de Nutrias,0.5,0.5,0.44,0.02,10.06,120.26,86,0.38,28.57,0,0.02507005325992505,0
2025-10-30 21:10:36,40.47520994949289,5.381904822249254,ES,Es Castell,2.17,7.51,0.43,0.18,73.78,106.72,72,6.78,19.4,1,0.9074581455990227,1
2025-10-30 21:10:17,67.25670405781057,31.66664305531353,RU,Kandalaksha,0.5,0.5,1.07,0.05,36.71,125.03,98,1.15,1.97,0,0.00943276530521267,0
2025-10-30 21:10:13,-37.85039277267688,-66.34319423528216,AR,La Pampa Province,3.58,11.68,0.24,0.12,65.04,82.09,19,4.78,27.96,0,0.39808153983872985,1
2025-10-30 21:10:12,35.3422932769612,29.162525404030845,GR,Kastelorizo,11.16,17.98,0.31,1.94,101.38,117.64,68,2.71,22.25,1,0.5141526420688167,1
2025-10-30 21:10:09,66.9062376595162,55.10412243190777,RU,Vonda,0.5,0.5,0.57,0.0,32.07,128.96,99,2.81,0.45,0,0.012329609901416946,0
2025-10-30 21:10:03,4.50946300593715,116.15986687633064,ID,Long Bawan,1.37,1.46,0.15,0.02,7.92,65.94,95,0.74,20.82,0,0.11466465059158085,0
2025-10-30 21:09:59,-9.638364482221531,-37.67645829823638,BR,Canindé de São Francisco,2.25,3.53,1.3,0.56,55.55,94.02,53,6.65,28.05,1,0.693697910511575,0
2025-10-30 21:09:56,8.99844466988813,118.68919351791556,PH,Panacan,1.34,2.77,0.2,0.18,47.84,157.15,78,1.94,26.52,0,0.426334918708968,0
2025-10-30 21:09:54,44.90431777887062,-107.22699462503368,US,Sheridan,0.72,2.75,0.34,0.09,90.31,87.76,36,4.74,10.02,0,0.11661206442512377,0
2025-10-30 21:09:35,-16.09557175498442,179.8123730234612,FJ,Northern,2.82,13.52,0.03,0.2,51.9,75.2,66,5.75,27.35,1,0.6790309750232711,1
2025-10-30 21:09:30,-6.923970487109102,-64.97757263528293,BR,Lábrea,0.5,0.5,0.07,0.03,8.36,102.53,86,0.91,24.94,0,0.12194518634532273,0
2025-10-30 21:09:19,76.84568701874261,-118.585677359692,CA,Mould Bay,0.5,0.51,0.01,0.01,67.98,108.68,99,3.05,-20.56,0,0.005818416406467521,0
2025-10-30 21:09:15,67.02792454861472,-61.10795686266407,CA,Qikiqtarjuaq,0.5,0.5,0.01,0.01,77.26,106.23,77,11.94,-1.41,0,0.023210870643406285,0
2025-10-30 21:09:07,66.40537792081338,-134.41301612579534,CA,Fort McPherson,0.5,0.5,0.08,0.01,71.0,97.5,83,2.21,-8.16,0,0.012329609901416946,0
2025-10-30 21:09:01,63.96241691896918,119.29391999612176,RU,Akana,0.5,0.5,0.06,0.01,48.72,122.1,94,1.71,-11.62,0,0.010629925982757313,0
2025-10-30 21:08:59,17.710125111492957,93.86164146568058,MM,Pathein,2.21,4.02,0.02,0.07,38.69,114.39,77,6.82,29.12,0,0.10448098130513878,0
2025-10-30 21:08:55,66.63017369979485,78.76245922393298,RU,Urengoy,0.5,0.65,0.19,0.12,65.56,113.41,92,4.04,-15.6,0,0.005818416406467521,0
2025-10-30 21:08:20,-3.426685463426324,-33.40086609088755,BR,Fernando de Noronha (Distrito Estadual),3.72,17.13,0.09,0.14,48.13,96.65,75,8.74,26.03,1,0.9111261756065844,1
2025-10-30 21:08:14,63.57896807850136,-22.255671903164256,IS,Grindavik,0.5,1.84,0.12,0.25,86.56,103.4,77,9.13,0.77,0,0.02017423218721761,0
2025-10-30 21:08:03,2.3175117218364107,-60.55266805848613,BR,Boa Vista,0.78,1.35,0.24,0.06,19.66,98.17,50,0.42,31.81,0,0.0266271534173181,0
2025-10-30 21:07:58,-29.781206438807487,147.67478686179152,AU,Walgett,3.74,15.83,0.25,0.05,37.44,73.37,33,5.23,23.19,1,0.6491246299975602,1
2025-10-30 21:07:55,26.215296921596888,-82.62632042817017,US,Saint James City,2.7,7.38,0.36,0.24,88.11,112.41,68,7.99,23.52,1,0.9452920710871247,1
2025-10-30 21:07:54,30.2000546131775,-102.3583240234174,US,Sanderson,2.62,8.08,0.21,0.18,88.75,88.54,17,4.63,20.88,1,0.6294699168126263,1
2025-10-30 21:07:47,61.17208236252654,-5.610359192703157,FO,Kráir,1.71,7.18,0.31,0.2,79.78,100.3,74,17.46,9.41,1,0.790082139579341,1
2025-10-30 21:07:32,-16.42982655196697,-63.52758267914356,BO,Mineros,1.12,1.62,0.17,0.05,38.35,111.66,39,1.46,29.62,0,0.03333999427396354,0
2025-10-30 21:07:27,18.93919807097052,-98.73704489590736,MX,Ecatzingo de Hidalgo,4.5,5.04,1.14,0.99,84.96,116.09,42,3.6,18.62,0,0.26299017711446776,1
2025-10-30 21:07:23,34.663468766528084,-107.16734891655445,US,Belen,0.94,1.48,0.2,0.38,76.96,68.9,19,1.19,19.03,0,0.13419481573159187,0
2025-10-30 21:07:22,10.96020917453427,-59.57005124192939,TT,Speyside,0.69,2.92,0.07,0.07,22.7,135.08,74,3.9,28.63,0,0.1041434893256224,0
2025-10-30 21:07:13,-19.626802830100274,168.58937599119548,VU,Looutel,3.54,9.59,0.03,1.01,20.22,71.12,75,3.8,26.01,1,0.6137389055982259,1
2025-10-30 21:07:03,61.86124756826575,-164.82261578011207,US,Chevak,0.5,0.67,0.07,0.03,81.84,102.09,88,8.92,-2.92,0,0.022226767252688493,0
2025-10-30 21:06:54,66.74715699629652,-93.27861335064908,CA,Wager Bay,0.5,0.5,0.02,0.0,76.72,105.29,98,0.93,-15.44,0,0.004629399152446971,0
2025-10-30 21:06:50,30.89761712860076,-82.94835040536884,US,Lakeland,2.55,2.71,0.57,0.17,70.29,135.77,66,5.59,15.92,1,0.7366583317812591,0
2025-10-30 21:06:46,54.86933182598239,90.7899358569514,RU,Shira,4.77,4.98,0.2,0.31,89.33,113.72,67,1.57,5.15,0,0.0785674128829694,1
2025-10-30 21:06:40,44.30322673884013,15.9041344729672,HR,Gračac,10.47,17.55,1.53,1.77,86.66,101.37,91,1.67,10.85,0,0.3236884312190115,1
2025-10-30 21:06:37,-22.785635731815105,34.87352575606724,MZ,Inhambane Province,2.1,4.0,0.13,0.11,33.37,84.72,85,3.02,22.37,0,0.45738256990945003,0
2025-10-30 21:06:27,-39.13510897881346,175.98069879293587,NZ,Turangi,0.61,2.64,0.05,0.08,49.13,66.74,42,2.65,6.52,0,0.025829404939425343,0
2025-10-30 21:06:20,57.32307675879187,-155.27343588254928,US,Akhiok,0.5,0.5,0.21,0.11,78.44,104.15,60,4.07,6.73,0,0.07592914770951187,0
2025-10-30 21:06:15,-32.78959479582134,136.9230798526916,AU,Iron Knob,1.42,1.88,0.54,0.11,44.05,86.96,82,9.51,15.47,1,0.77094550733486,0
2025-10-30 21:06:12,71.25675693733061,-42.13905837173721,GL,Greenland,0.5,0.5,0.01,0.0,57.03,83.99,94,5.0,-20.94,0,0.005872353336119762,0
2025-10-30 21:05:46,-11.291212694164985,137.35505016023257,AU,Nhulunbuy,1.05,2.15,0.11,0.05,12.41,73.37,76,4.25,28.51,0,0.13049940707776,0
2025-10-30 21:05:36,-10.90672289155961,-40.10220127158567,BR,Ponto Novo,2.47,4.06,1.38,0.2,51.04,97.58,29,3.53,29.67,0,0.062127760121142725,0
2025-10-30 21:05:35,45.857103462571104,-119.83691626177,US,Boardman,2.44,5.1,1.59,0.25,67.97,114.77,66,4.21,11.86,0,0.28436333689505294,1
2025-10-30 21:05:32,30.17227264611782,93.65190064271098,CN,Xarlung,0.99,1.04,0.53,0.04,31.82,88.52,99,1.56,4.12,0,0.046821448407231576,0
2025-10-30 21:05:25,64.60084854259432,153.57826381862583,RU,Suksukan,0.5,0.54,0.18,0.07,58.6,123.05,99,1.27,-26.77,0,0.004796366991191302,0
2025-10-30 21:05:22,65.1266251533338,-178.8284015789475,RU,Egvekinot,0.5,0.62,0.02,0.04,83.77,109.64,75,10.87,-7.08,0,0.02563045749520778,0
2025-10-30 21:05:13,47.90883099215347,116.54172330802272,MN,Badmashin,2.95,9.2,0.15,0.6,76.33,104.97,64,3.64,-2.87,0,0.014433114339590457,1
2025-10-30 21:05:10,-41.43757882572539,-69.53109600063719,AR,Ingeniero Jacobacci,0.5,0.65,0.16,0.06,52.26,66.12,26,11.14,18.34,0,0.39775670299988347,0
2025-10-30 21:05:02,24.562849374067284,-81.99076640324247,US,Key West,3.17,13.97,0.42,0.97,107.43,93.07,61,8.98,25.56,1,0.9603962922148335,1
2025-10-30 21:04:57,-52.771991328580775,-57.59594044058531,FK,Mare Harbour Rancho,6.59,15.28,0.05,0.32,48.47,72.11,87,7.55,7.59,0,0.13290863495353275,1
2025-10-30 21:04:50,16.814513346754183,-93.49601614747316,MX,Ocozocoautla de Espinosa,2.51,4.49,0.28,0.23,89.8,95.86,78,4.39,21.05,1,0.756110978966066,1
2025-10-30 21:04:49,31.70453699460751,-64.53709393774948,BM,Hamilton,4.65,17.06,0.15,0.18,32.76,118.25,90,10.96,25.37,1,0.9035905662783912,1
2025-10-30 21:04:41,-12.360058364015757,50.30045443499674,MG,Betahitra,1.81,6.87,0.14,0.1,43.07,74.6,75,8.03,25.16,1,0.9048064219222443,1
2025-10-30 21:04:29,-15.469973216092654,51.560829199763305,MG,Antsirabato,1.57,6.31,0.02,0.12,66.8,73.13,72,5.27,24.58,1,0.8593272473240898,1
2025-10-30 21:04:14,-11.920768568471743,40.05951251714686,MZ,Mitamba,2.48,8.09,0.3,0.08,38.33,87.7,97,0.73,21.17,0,0.11466465059158085,1
2025-10-30 21:04:10,69.27860578883138,-135.56990665982494,CA,Camp Farewell,0.5,0.5,0.06,0.0,70.38,106.47,96,4.1,-7.4,0,0.012329609901416946,0
2025-10-30 21:04:02,-38.85822778131272,-67.73544686003915,AR,Allen,1.91,4.53,0.16,0.05,70.59,74.26,16,5.94,26.92,0,0.3837221726128889,1
2025-10-30 21:03:59,56.37878009194719,71.72318731375071,RU,Krutinka,9.61,16.56,0.62,0.28,70.86,124.56,61,5.38,6.85,0,0.0825090686799661,1
2025-10-30 21:03:54,61.71088849483405,58.43637790360495,RU,Vels,0.58,0.59,1.19,0.01,28.62,126.23,93,1.04,2.78,0,0.009056899667595047,0
2025-10-30 21:03:48,74.59675615661433,78.52784342601791,RU,Dikson,0.5,0.5,0.02,0.01,85.43,107.59,59,2.8,-2.75,0,0.014413664824339045,0
2025-10-30 21:03:47,65.5304232106723,11.299886912991326,NO,Gladstad,1.68,6.46,1.77,0.23,50.01,113.96,72,2.19,5.03,0,0.09364809717811715,1
2025-10-30 21:03:36,49.89956387196733,119.11121111263792,RU,Priargunsk,0.68,2.25,2.65,0.85,56.99,116.68,71,3.53,-4.36,0,0.010374421534369512,0
2025-10-30 21:03:33,51.423724698358285,-70.18190566141088,CA,Quebec,3.11,3.2,0.67,0.3,58.69,106.84,78,1.72,5.95,0,0.09024847629914254,0
2025-10-30 21:03:32,29.571228827232105,88.67224283967397,CN,Renwu,0.96,1.09,0.66,0.1,39.18,91.14,100,2.42,-1.8,0,0.012329609901416946,0
2025-10-30 21:03:10,-17.892515340536733,178.0748177505294,FJ,Fiji,3.51,14.1,0.02,0.23,36.79,75.88,59,2.51,25.38,0,0.4809593875431872,1
2025-10-30 21:03:07,-2.2683699516068003,39.74412218800677,KE,Witu,1.86,3.05,2.43,0.37,21.03,112.85,87,3.74,24.02,1,0.6802675221106462,0
2025-10-30 21:03:06,57.317444665747445,-157.3387539420782,US,Pilot Point,0.5,0.5,0.17,0.11,80.84,105.44,96,0.41,2.44,0,0.009056899667595047,0
2025-10-30 21:03:03,67.25005943436173,-153.88212632910157,US,Soo City (historical),0.5,0.5,0.15,0.06,79.84,106.72,77,3.46,-7.61,0,0.011180578888183908,0
2025-10-30 21:03:00,35.032728409474984,22.71531963962721,GR,Paleochora,3.41,6.86,0.22,0.64,99.8,96.67,61,3.1,20.43,1,0.6007553482854643,1
2025-10-30 21:02:52,8.211001977844063,106.61164298815254,VN,Con Son,9.05,13.39,0.3,0.53,72.72,146.74,80,3.66,27.91,0,0.2250249401644214,1
2025-10-30 21:02:48,-20.749399492844688,45.04037549989173,MG,Andimaka,5.64,10.95,0.47,0.15,52.2,103.83,70,2.77,23.52,1,0.509008153955867,1
2025-10-30 21:02:44,9.209662032203653,-84.66211660535413,CR,Jacó,0.63,1.44,0.28,0.12,26.0,79.66,85,3.6,26.24,1,0.7222118809140269,0
2025-10-30 21:02:32,71.49220689582654,-10.886111278786244,SJ,Olonkinbyen,0.5,0.56,0.02,0.02,83.59,108.61,86,6.31,-0.08,0,0.012462296410017743,0
2025-10-30 21:02:17,26.48521744911648,-102.53587699232614,MX,Cuatro Ciénegas de Carranza,4.28,6.97,0.5,1.48,93.2,99.7,21,0.64,25.29,0,0.06444997275381904,1
2025-10-30 21:02:14,34.74261539405856,22.829389212585568,GR,Paleochora,2.36,5.95,0.14,0.23,90.88,91.11,58,2.27,20.69,1,0.55897504899561,1
2025-10-30 21:02:05,-31.445227384302378,132.0943841517343,AU,Penong,2.7,10.62,0.06,0.2,45.65,66.86,82,4.17,14.72,0,0.41504446541601314,1
2025-10-30 21:01:57,40.37838543673519,11.11210085702774,IT,Orosei,6.01,10.6,0.8,0.43,74.23,108.34,81,7.89,21.49,1,0.88522672013575,1
2025-10-30 21:01:43,6.244410392712496,-54.70204483337386,SR,Mariënburg,0.5,0.82,0.79,0.37,28.99,111.03,84,8.33,27.43,1,0.8068208507991067,0
2025-10-30 21:01:42,71.1752652166503,-125.69483459008512,CA,Sachs Harbour,0.5,0.78,0.03,0.01,66.76,103.03,84,10.64,-2.15,0,0.02822212207398606,0
2025-10-30 21:01:35,-17.469360118557432,-38.67919247470658,BR,Alcobaça,2.07,8.72,0.46,0.17,48.19,84.23,84,7.56,24.83,1,0.8939126097995997,1
2025-10-30 21:01:27,53.70993427912211,30.44685343267884,BY,Vil'chitsy,4.38,4.8,2.08,2.18,73.34,125.67,84,7.89,8.66,0,0.18233713929334988,1
2025-10-30 21:01:10,-15.269577819887928,23.59702093176012,ZM,Mukoko,6.68,8.68,0.37,0.11,34.58,141.93,52,2.77,24.77,0,0.33594047148311124,1
2025-10-30 21:01:04,4.172634476996478,36.614211038682015,ET,Turmi,2.9,16.19,0.2,0.01,28.57,101.89,58,8.05,27.08,1,0.9270566302692383,1
2025-10-30 21:01:02,61.95523302312293,-4.894343852433934,FO,Klaksvík,1.47,7.43,0.19,0.25,81.18,101.48,74,15.68,8.89,1,0.7093199018830534,1
2025-10-30 21:00:58,6.940669021264924,-5.940419978775196,CI,Bouaflé,2.42,3.87,0.8,0.17,24.59,126.33,96,1.43,22.48,0,0.25688377638967436,0
2025-10-30 21:00:56,64.3537599763248,154.06381316753618,RU,Suksukan,0.5,0.53,0.28,0.04,61.45,118.25,99,0.77,-28.36,0,0.004629399152446971,0
2025-10-30 21:00:47,-39.08830442510828,-74.19881041739714,CL,Puerto Saavedra,1.08,3.68,0.01,0.18,47.93,65.86,77,4.67,13.31,1,0.5129844784761356,0
2025-10-30 21:00:26,21.806329441198955,-158.8680913168882,US,Hanamaulu,1.55,7.1,0.19,0.26,70.39,85.41,76,8.04,25.69,1,0.9048064219222443,1
2025-10-30 21:00:25,8.42891887897143,31.208166832563226,SS,Leer,2.46,4.65,0.77,0.07,12.55,125.38,72,2.26,25.36,1,0.501149313201831,1
2025-10-30 21:00:19,70.1764993870799,146.59789776421007,RU,Chokurdakh,0.5,0.5,0.01,0.01,56.2,124.86,96,4.03,-23.89,0,0.005818416406467521,0
2025-10-30 21:00:17,-23.455523795610134,-148.1983328439666,PF,Anua,1.49,6.42,0.01,0.11,46.88,79.72,72,5.78,22.26,1,0.8604502155569539,1
2025-10-30 21:00:13,53.9475306143961,-9.936056461382805,IE,Rosturk,2.86,12.48,0.16,0.28,81.06,99.74,81,16.7,11.58,1,0.8732915397599514,1
2025-10-30 21:00:06,20.216930103208057,-77.36864797658117,CU,Campechuela,2.94,4.01,0.17,0.09,49.7,118.35,80,1.49,27.56,0,0.11966148449256879,0
2025-10-30 20:59:41,61.27274642601665,120.49520865461297,RU,Olyokminsk,0.5,0.5,0.48,0.16,53.98,125.0,95,1.66,-10.77,0,0.010629925982757313,0
2025-10-30 20:59:38,-16.49581133568732,-150.62844734136937,PF,Fare,1.39,5.49,0.05,0.13,39.95,74.28,75,8.6,26.62,1,0.8952268936546867,1
2025-10-30 20:59:33,59.2220022958559,162.16631587913844,RU,Ossora,0.5,0.5,0.02,0.01,64.04,103.8,91,2.65,-8.2,0,0.012329609901416946,0
2025-10-30 20:59:24,31.42220012154779,129.70824287709803,JP,Kaseda-shirakame,5.46,6.99,0.72,9.61,94.59,118.62,69,8.6,22.16,1,0.9596392696409624,1
2025-10-30 20:59:20,49.442860824347406,-55.44984310626707,CA,Leading Tickles,0.66,0.74,0.12,0.06,58.68,99.21,73,3.05,9.74,0,0.1666257716601072,0
2025-10-30 20:59:05,-55.960837214997326,-69.47083620482078,AR,Barrio Almirante Brown,1.23,1.93,0.02,0.16,38.86,66.67,86,13.04,7.69,1,0.6650617781807405,0
2025-10-30 20:58:54,62.54670510684491,34.66805071144867,RU,Fedotovo,0.52,0.56,1.41,0.18,45.24,121.14,93,1.23,4.28,0,0.05036236455021326,0
2025-10-30 20:58:53,11.939567120778976,-60.66353547280991,TT,Speyside,0.76,2.6,2.64,0.49,23.04,155.37,74,4.92,28.76,0,0.1540272211577374,0
2025-10-30 20:58:41,41.04570765687436,3.02103427994868,ES,Santa Susanna,1.72,4.84,2.1,0.56,67.47,108.08,71,7.86,20.62,1,0.9263950085022028,1
2025-10-30 20:58:05,23.30330612587952,102.20755821196332,CN,Yisa,8.8,9.95,0.89,0.43,5.92,94.57,95,1.21,12.22,0,0.19244746495592166,1
2025-10-30 20:57:45,65.84461405161522,108.74878676052884,RU,Aykhal,0.5,0.5,0.01,0.0,69.88,106.25,100,3.15,-21.35,0,0.005818416406467521,0
2025-10-30 20:57:41,36.05423954298503,4.55106151047471,DZ,El Achir,0.83,1.44,2.76,0.21,67.13,97.16,75,1.61,12.64,0,0.2275449210185022,0
